ident,type,name,latitude_deg,longitude_deg,iso_country,municipality,longest_runway_ft,Amiri,A319_Amiri
5A8,medium_airport,Aleknagik / New Airport,59.2826004028,-158.617996216,US,Aleknagik,2040.0,0,0
AGGH,large_airport,Honiara International Airport,-9.428,160.054993,SB,Honiara,7218.0,0,0
AGGM,medium_airport,Munda Airport,-8.32797,157.263,SB,Munda,4593.0,0,0
ANYN,medium_airport,Nauru International Airport,-0.547458,166.919006,NR,Yaren District,7054.0,0,0
AXF,medium_airport,Alxa Left Banner Bayanhot Airport,38.74831,105.58858,CN,Bayanhot,7874.0,0,0
AYBA,medium_airport,Baimuru Airport,-7.49686002731,144.819900513,PG,Baimuru,2953.0,0,0
AYBK,medium_airport,Buka Airport,-5.422319889068604,154.67300415039062,PG,Buka Island,5125.0,0,0
AYCH,medium_airport,Chimbu Airport,-6.024290084838867,144.9709930419922,PG,Kundiawa,3330.0,0,0
AYDU,medium_airport,Daru Airport,-9.08676,143.207993,PG,Daru,4593.0,0,0
AYGA,medium_airport,Goroka Airport,-6.081689834590001,145.391998291,PG,Goronka,5400.0,0,0
AYGN,medium_airport,Gurney Airport,-10.3114995956,150.333999634,PG,Gurney,5546.0,0,0
AYGR,medium_airport,Girua Airport,-8.80453968048,148.309005737,PG,Popondetta,5485.0,0,0
AYHK,medium_airport,Hoskins Airport,-5.463846,150.407327,PG,Kimbe,6644.0,0,0
AYKM,medium_airport,Kerema Airport,-7.96361017227,145.770996094,PG,Kerema,3044.0,0,0
AYKV,medium_airport,Kavieng Airport,-2.57940006256,150.807998657,PG,Kavieng,5592.0,0,0
AYMD,medium_airport,Madang Airport,-5.20707988739,145.789001465,PG,Madang,5174.0,0,0
AYMH,medium_airport,Mount Hagen Kagamuga Airport,-5.828212,144.299412,PG,Mount Hagen,7185.0,0,0
AYMN,medium_airport,Mendi Airport,-6.14774,143.656998,PG,Mendi,4411.0,0,0
AYMO,medium_airport,Momote Airport,-2.06189,147.423996,PG,Manus Island,6136.0,0,0
AYNZ,medium_airport,Nadzab Airport,-6.569803,146.725977,PG,Lae,7999.0,0,0
AYPY,large_airport,Port Moresby Jacksons International Airport,-9.44338035583496,147.22000122070312,PG,Port Moresby,9022.0,0,0
AYTK,medium_airport,Tokua Airport,-4.34046,152.380005,PG,Kokopo,5643.0,0,0
AYVN,medium_airport,Vanimo Airport,-2.6926,141.3028,PG,Vanimo,5775.0,0,0
AYWD,medium_airport,Wapenamanda Airport,-5.635293,143.892231,PG,Wapenamanda,5052.0,0,0
AYWK,medium_airport,Wewak International Airport,-3.58383011818,143.669006348,PG,Wewak,5234.0,0,0
BG-JAM,medium_airport,Bezmer Air Base,42.454899,26.3522,BG,Bezmer,8193.0,0,0
BGAA,medium_airport,Aasiaat Airport,68.721802,-52.784698,GL,Aasiaat,2621.0,0,0
BGBW,medium_airport,Narsarsuaq Airport,61.1605,-45.425999,GL,Narsarsuaq,6004.0,0,0
BGGH,medium_airport,Nuuk Airport,64.191066,-51.67914,GL,Nuuk,7217.0,0,0
BGJN,medium_airport,Ilulissat Airport,69.243202,-51.057098,GL,Ilulissat,2772.0,0,0
BGKK,medium_airport,Kulusuk Airport,65.573601,-37.1236,GL,Kulusuk,3934.0,0,0
BGSF,medium_airport,Kangerlussuaq Airport,67.010446,-50.715294,GL,Kangerlussuaq,9219.0,0,0
BGSS,medium_airport,Sisimiut Airport,66.951302,-53.729301,GL,Sisimiut,2621.0,0,0
BGTL,medium_airport,Pituffik Space Base,76.531197,-68.703201,GL,Pituffik,9997.0,0,0
BIAR,medium_airport,Akureyri Airport,65.656573,-18.072018,IS,Akureyri,7874.0,0,0
BIEG,medium_airport,Egilsstaðir Airport,65.2833023071289,-14.401399612426758,IS,Egilsstaðir,6562.0,0,0
BIHN,medium_airport,Hornafjörður Airport,64.295601,-15.2272,IS,Höfn,4921.0,0,0
BIHU,medium_airport,Húsavík Airport,65.952301,-17.426001,IS,Húsavík,5266.0,0,0
BIIS,medium_airport,Ísafjörður Airport,66.058098,-23.1353,IS,Ísafjörður,4593.0,0,0
BIKF,large_airport,Keflavik International Airport,63.985001,-22.6056,IS,Reykjavík,10056.0,1,1
BIRK,medium_airport,Reykjavík Domestic Airport,64.128732,-21.93759,IS,Reykjavík,5141.0,0,0
BISI,medium_airport,Siglufjörður Airport,66.137847,-18.908157,IS,Siglufjörður,3556.0,0,0
BIVM,medium_airport,Vestmannaeyjar Airport,63.42430114746094,-20.27890014648437,IS,Vestmannaeyjar,3934.0,0,0
BKPR,medium_airport,Priština Adem Jashari International Airport,42.5728,21.035801,XK,Prishtina,9974.0,0,0
BR-0569,medium_airport,Glauber de Andrade Rocha Airport,-14.907885,-40.914804,BR,Vitória da Conquista,6890.0,0,0
BTZ,medium_airport,Betong International Airport,5.79,101.15,TH,Betong,5906.0,0,0
BY-0001,medium_airport,Orsha Airport - Balbasovo Air Base,54.439999,30.2967,BY,Orsha,9845.0,0,0
BZ-CZH,medium_airport,Corozal Airport,18.3822,-88.411903,BZ,Corozal,2198.0,0,0
BZ-PND,medium_airport,Punta Gorda Airport,16.1024,-88.808296,BZ,Punta Gorda,2372.0,0,0
BZ-SJX,medium_airport,Sartaneja Airport,18.3561,-88.130798,BZ,Sartaneja,2510.0,0,0
CAJ4,medium_airport,Anahim Lake Airport,52.451501,-125.303776,CA,Anahim Lake,3930.0,0,0
CAT4,medium_airport,Qualicum Beach Airport,49.337456,-124.393086,CA,Qualicum Beach,3565.0,0,0
CAZ5,medium_airport,Cache Creek-Ashcroft Regional Airport,50.775258,-121.321314,CA,Cache Creek,3280.0,0,0
CBBC,medium_airport,Bella Bella (Campbell Island) Airport,52.185001,-128.156994,CA,Bella Bella,3700.0,0,0
CN-0079,medium_airport,Shaoguan Danxia Airport,24.9786,113.420998,CN,Shaoguan,9186.0,0,0
CN-0081,medium_airport,Jinggangshan Airport,26.856899,114.737,CN,Ji'an,8530.0,0,0
CN-0188,medium_airport,Beijing Nanjiao Airport,39.48595,116.37236,CN,Beijing,12467.0,0,0
CN-0237,medium_airport,Tashikuergan Hongqilafu Airport,37.661333,75.288877,CN,Tashikuergan,12467.0,0,0
CN-0321,medium_airport,Anji Tianzihu General Airport,30.797725,119.590287,CN,Anji,2625.0,0,0
CNC3,medium_airport,Brampton-Caledon Airport,43.7603,-79.875,CA,,3500.0,0,0
CYAG,medium_airport,Fort Frances Municipal Airport,48.655749,-93.44349,CA,Fort Frances,4500.0,0,0
CYAH,medium_airport,La Grande-4 Airport,53.754699707,-73.6753005981,CA,La Grande-4,5000.0,0,0
CYAM,medium_airport,Sault Ste Marie Airport,46.483216,-84.508467,CA,Sault Ste Marie,6000.0,0,0
CYAQ,medium_airport,Kasabonika Airport,53.52470016479492,-88.6427993774414,CA,Kasabonika,3500.0,0,0
CYAV,medium_airport,Winnipeg / St. Andrews Airport,50.0564,-97.032501,CA,Winnipeg/Saint Andrews,3000.0,0,0
CYAX,medium_airport,Lac du Bonnet Airport,50.294399,-96.010002,CA,Lac du Bonnet,3600.0,0,0
CYAY,medium_airport,St. Anthony Airport,51.391909,-56.08321,CA,St. Anthony,4000.0,0,0
CYAZ,medium_airport,Tofino / Long Beach Airport,49.079833,-125.775583,CA,Tofino,5000.0,0,0
CYBC,medium_airport,Baie-Comeau Airport,49.1325,-68.204399,CA,Baie-Comeau,6000.0,0,0
CYBD,medium_airport,Bella Coola Airport,52.387501,-126.596001,CA,Bella Coola,4200.0,0,0
CYBF,medium_airport,Bonnyville Airport,54.304199,-110.744003,CA,Bonnyville,4434.0,0,0
CYBG,medium_airport,CFB Bagotville / Saguenay-Bagotville Airport,48.331908,-70.992909,CA,La Baie,10000.0,0,0
CYBK,medium_airport,Baker Lake Airport,64.29889678960001,-96.077796936,CA,Baker Lake,4200.0,0,0
CYBL,medium_airport,Campbell River Airport,49.950802,-125.271004,CA,Campbell River,6499.0,0,0
CYBR,medium_airport,Brandon Municipal Airport,49.91,-99.951897,CA,Brandon,6500.0,0,0
CYBU,medium_airport,Nipawin Airport,53.33250045776367,-104.00800323486328,CA,Nipawin,2930.0,0,0
CYBW,medium_airport,Calgary / Springbank Airport,51.1031,-114.374001,CA,Calgary,5000.0,0,0
CYBX,medium_airport,Lourdes-de-Blanc-Sablon Airport,51.4436,-57.185299,CA,Blanc-Sablon,4500.0,0,0
CYCB,medium_airport,Cambridge Bay Airport,69.1081008911,-105.138000488,CA,Cambridge Bay,5000.0,0,0
CYCC,medium_airport,Cornwall Regional Airport,45.092637,-74.567724,CA,Cornwall,3500.0,0,0
CYCD,medium_airport,Nanaimo Airport,49.05497,-123.869863,CA,Nanaimo,6602.0,0,0
CYCE,medium_airport,Centralia / James T. Field Memorial Aerodrome,43.285599,-81.508301,CA,Huron Park,5012.0,0,0
CYCG,medium_airport,Castlegar/West Kootenay Regional Airport,49.296398,-117.632004,CA,Castlegar,5300.0,0,0
CYCH,medium_airport,Miramichi Airport,47.007801,-65.449203,CA,Miramichi,10006.0,0,0
CYCL,medium_airport,Charlo Airport,47.990799,-66.330299,CA,Charlo,6000.0,0,0
CYCN,medium_airport,Cochrane Airport,49.10559844970703,-81.01360321044922,CA,Cochrane,4500.0,0,0
CYCP,medium_airport,Blue River Airport,52.11669921875,-119.28299713134766,CA,Blue River,5000.0,0,0
CYCQ,medium_airport,Chetwynd Airport,55.687198638916016,-121.6269989013672,CA,Chetwynd,4484.0,0,0
CYDA,medium_airport,Dawson City Airport,64.04309844970703,-139.1280059814453,CA,Dawson City,5000.0,0,0
CYDB,medium_airport,Burwash Airport,61.371101,-139.041,CA,Burwash Landing,5006.0,0,0
CYDF,medium_airport,Deer Lake Airport,49.2108,-57.391399,CA,Deer Lake,8005.0,0,0
CYDM,medium_airport,Ross River Airport,61.9706001282,-132.42300415,CA,Ross River,5000.0,0,0
CYDN,medium_airport,Dauphin Barker Airport,51.1008,-100.052002,CA,Dauphin,5000.0,0,0
CYDO,medium_airport,Dolbeau-Saint-Felicien Airport,48.7785,-72.375,CA,Dolbeau-Saint-Felicien,4971.0,0,0
CYDQ,medium_airport,Dawson Creek Airport,55.741245,-120.183263,CA,Dawson Creek,5001.0,0,0
CYEE,medium_airport,Huronia Airport,44.6833000183,-79.9282989502,CA,Midland,3998.0,0,0
CYEG,large_airport,Edmonton International Airport,53.3097,-113.580002,CA,Edmonton,11000.0,1,0
CYEL,medium_airport,Elliot Lake Municipal Airport,46.351398468,-82.5614013672,CA,Elliot Lake,4500.0,0,0
CYEM,medium_airport,Manitoulin East Municipal Airport,45.842435,-81.857595,CA,Sheguiandah,3500.0,0,0
CYEN,medium_airport,Estevan Airport,49.2103004456,-102.966003418,CA,Estevan,5000.0,0,0
CYET,medium_airport,Edson Airport,53.5788993835,-116.464996338,CA,Edson,6000.0,0,0
CYEV,medium_airport,Inuvik Mike Zubko Airport,68.30419921880001,-133.483001709,CA,Inuvik,6000.0,0,0
CYEY,medium_airport,Amos/Magny Airport,48.563903,-78.249702,CA,Amos,5000.0,0,0
CYFB,medium_airport,Iqaluit Airport,63.756402,-68.555801,CA,Iqaluit,8605.0,0,0
CYFC,medium_airport,Fredericton Airport,45.868900299072266,-66.53720092773438,CA,Fredericton,8005.0,0,0
CYFE,medium_airport,Forestville Airport,48.74610137939453,-69.09719848632812,CA,Forestville,5000.0,0,0
CYFJ,medium_airport,Mont-Tremblant International Airport,46.409401,-74.779999,CA,La Macaza,5587.0,0,0
CYFR,medium_airport,Fort Resolution Airport,61.1808013916,-113.690002441,CA,Fort Resolution,4001.0,0,0
CYFS,medium_airport,Fort Simpson Airport,61.76020050048828,-121.23699951171876,CA,Fort Simpson,6000.0,0,0
CYGD,medium_airport,Goderich Airport,43.7668991089,-81.7106018066,CA,Goderich,5000.0,0,0
CYGE,medium_airport,Golden Airport,51.299196,-116.982002,CA,Golden,4500.0,0,0
CYGK,medium_airport,Kingston Norman Rogers Airport,44.2253,-76.596901,CA,Kingston,6001.0,0,0
CYGL,medium_airport,La Grande Rivière Airport,53.625301361083984,-77.7042007446289,CA,La Grande Rivière,6500.0,0,0
CYGM,medium_airport,Gimli Industrial Park Airport,50.62810134887695,-97.04329681396484,CA,Gimli,6800.0,0,0
CYGP,medium_airport,Michel-Pouliot Gaspé Airport,48.774915,-64.481893,CA,Gaspé,5488.0,0,0
CYGQ,medium_airport,Geraldton Greenstone Regional Airport,49.77830123901367,-86.93939971923828,CA,Geraldton,5000.0,0,0
CYGR,medium_airport,Îles-de-la-Madeleine Airport,47.425242,-61.778612,CA,Les Îles-de-la-Madeleine,4500.0,0,0
CYGV,medium_airport,Havre-Saint-Pierre Airport,50.281898,-63.611401,CA,Havre-Saint-Pierre,4500.0,0,0
CYGW,medium_airport,Kuujjuarapik Airport,55.28189849853516,-77.76529693603516,CA,Kuujjuarapik,5052.0,0,0
CYHD,medium_airport,Dryden Regional Airport,49.831699,-92.744202,CA,Dryden,5993.0,0,0
CYHF,medium_airport,Hearst René Fontaine Municipal Airport,49.71419906616211,-83.68609619140625,CA,Hearst,4500.0,0,0
CYHM,medium_airport,John C. Munro Hamilton International Airport,43.1735992432,-79.93499755859999,CA,Hamilton,10006.0,0,0
CYHN,medium_airport,Hornepayne Municipal Airport,49.19309997558594,-84.75890350341797,CA,Hornepayne,3500.0,0,0
CYHT,medium_airport,Haines Junction Airport,60.7892,-137.546005,CA,Haines Junction,5000.0,0,0
CYHU,medium_airport,Montréal / Saint-Hubert Metropolitan Airport,45.517502,-73.416901,CA,Montréal,7840.0,0,0
CYHY,medium_airport,Hay River / Merlyn Carter Airport,60.8396987915,-115.782997131,CA,Hay River,6000.0,0,0
CYHZ,large_airport,Halifax / Stanfield International Airport,44.8807983398,-63.5085983276,CA,Halifax,10500.0,1,0
CYIB,medium_airport,Atikokan Municipal Airport,48.773899,-91.638603,CA,Atikokan,3500.0,0,0
CYID,medium_airport,Digby / Annapolis Regional Airport,44.5458450365,-65.7854247093,CA,Digby,3950.0,0,0
CYIF,medium_airport,St Augustin Airport,51.2117,-58.658298,CA,St-Augustin,4590.0,0,0
CYIV,medium_airport,Island Lake Airport,53.857200622558594,-94.65360260009766,CA,Island Lake,4000.0,0,0
CYJF,medium_airport,Fort Liard Airport,60.2358016968,-123.46900177,CA,Fort Liard,2946.0,0,0
CYJN,medium_airport,St Jean Airport,45.29439926147461,-73.28109741210938,CA,St Jean,4000.0,0,0
CYJT,medium_airport,Dymond Airport,48.544201,-58.549999,CA,Stephenville,10000.0,0,0
CYKA,medium_airport,Kamloops John Moose Fulton Field Regional Airport,50.703038,-120.448641,CA,Kamloops,8000.0,0,0
CYKF,medium_airport,Region of Waterloo International Airport,43.4608,-80.378601,CA,Breslau,7003.0,0,0
CYKJ,medium_airport,Key Lake Airport,57.25609970092773,-105.61799621582033,CA,Key Lake,5200.0,0,0
CYKL,medium_airport,Schefferville Airport,54.805301666259766,-66.8052978515625,CA,Schefferville,5000.0,0,0
CYKM,medium_airport,Kincardine Municipal Airport,44.201401,-81.606697,CA,Kincardine,4085.0,0,0
CYKX,medium_airport,Kirkland Lake Airport,48.21030044555664,-79.98139953613281,CA,Kirkland Lake,4500.0,0,0
CYKY,medium_airport,Kindersley Airport,51.5175018311,-109.180999756,CA,Kindersley,3507.0,0,0
CYLD,medium_airport,Chapleau Airport,47.81999969482422,-83.3467025756836,CA,Chapleau,5000.0,0,0
CYLJ,medium_airport,Meadow Lake Airport,54.125301361083984,-108.52300262451172,CA,Meadow Lake,5000.0,0,0
CYLL,medium_airport,Lloydminster Airport,53.3092,-110.072998,CA,Lloydminster,5577.0,0,0
CYLR,medium_airport,Leaf Rapids Airport,56.513301849365234,-99.98529815673828,CA,Leaf Rapids,3000.0,0,0
CYLS,medium_airport,Barrie-Lake Simcoe Regional Airport,44.485056,-79.554663,CA,Barrie,6001.0,0,0
CYLT,medium_airport,Alert Airport,82.517799,-62.280602,CA,Alert,5500.0,0,0
CYLW,medium_airport,Kelowna International Airport,49.9561,-119.377998,CA,Kelowna,8900.0,0,0
CYMA,medium_airport,Mayo Airport,63.61640167236328,-135.8679962158203,CA,Mayo,4856.0,0,0
CYME,medium_airport,Matane Airport,48.85689926147461,-67.45330047607422,CA,Matane,5500.0,0,0
CYMG,medium_airport,Manitouwadge Airport,49.08390045166016,-85.86060333251953,CA,Manitouwadge,3600.0,0,0
CYMJ,medium_airport,Moose Jaw Air Vice Marshal C. M. McEwen Airport,50.330299377441406,-105.55899810791016,CA,Moose Jaw,8326.0,0,0
CYML,medium_airport,Charlevoix Airport,47.59749984741211,-70.2238998413086,CA,Charlevoix,4501.0,0,0
CYMM,medium_airport,Fort McMurray Airport,56.653301239,-111.222000122,CA,Fort McMurray,7503.0,0,0
CYMO,medium_airport,Moosonee Airport,51.29109954833984,-80.60780334472656,CA,Moosonee,4000.0,0,0
CYMT,medium_airport,Chapais Airport,49.77190017700195,-74.5280990600586,CA,Chibougamau,6496.0,0,0
CYMX,medium_airport,Montreal International (Mirabel) Airport,45.679501,-74.038696,CA,Montréal,12000.0,0,0
CYNA,medium_airport,Natashquan Airport,50.190114,-61.78898,CA,Natashquan,4494.0,0,0
CYND,medium_airport,Ottawa / Gatineau Airport,45.521702,-75.563599,CA,Gatineau,6000.0,0,0
CYNJ,medium_airport,Langley Airport,49.1008,-122.630997,CA,Langley,2743.0,0,0
CYNL,medium_airport,Points North Landing Airport,58.27669906616211,-104.08200073242188,CA,Points North Landing,6000.0,0,0
CYNM,medium_airport,Matagami Airport,49.76169967651367,-77.80280303955078,CA,Matagami,5000.0,0,0
CYNN,medium_airport,Nejanilini Lake Airport,59.4874992371,-97.7802963257,CA,Nejanilini Lake,3350.0,0,0
CYOA,medium_airport,Ekati Airport,64.6988983154,-110.614997864,CA,Ekati,6411.0,0,0
CYOD,medium_airport,CFB Cold Lake,54.40499877929688,-110.27899932861328,CA,Cold Lake,12600.0,0,0
CYOJ,medium_airport,High Level Airport,58.62139892578125,-117.16500091552734,CA,High Level,5000.0,0,0
CYOO,medium_airport,Oshawa Executive Airport,43.922798,-78.894997,CA,Oshawa,4750.0,0,0
CYOP,medium_airport,Rainbow Lake Airport,58.491402,-119.407997,CA,Rainbow Lake,4539.0,0,0
CYOS,medium_airport,Owen Sound / Billy Bishop Regional Airport,44.5903015137,-80.8375015259,CA,Owen Sound,3932.0,0,0
CYOW,large_airport,Ottawa Macdonald-Cartier International Airport,45.322498,-75.669197,CA,Ottawa,10000.0,1,0
CYPA,medium_airport,Prince Albert Glass Field,53.2141990662,-105.672996521,CA,Prince Albert,5000.0,0,0
CYPD,medium_airport,Port Hawkesbury Airport,45.6567001343,-61.3680992126,CA,Port Hawkesbury,5000.0,0,0
CYPE,medium_airport,Peace River Airport,56.226898,-117.446999,CA,Peace River,5000.0,0,0
CYPG,medium_airport,Portage-la-Prairie / Southport Airport,49.903099,-98.273817,CA,Portage la Prairie,7000.0,0,0
CYPK,medium_airport,Pitt Meadows Airport,49.216099,-122.709999,CA,Pitt Meadows,5003.0,0,0
CYPL,medium_airport,Pickle Lake Airport,51.4463996887207,-90.21420288085938,CA,Pickle Lake,4921.0,0,0
CYPN,medium_airport,Port-Menier Airport,49.836399,-64.288597,CA,Port-Menier,4886.0,0,0
CYPQ,medium_airport,Peterborough Municipal Airport,44.23,-78.363297,CA,Peterborough,7000.0,0,0
CYPR,medium_airport,Prince Rupert Airport,54.2860984802,-130.445007324,CA,Prince Rupert,6000.0,0,0
CYPW,medium_airport,Powell River Airport,49.83420181274414,-124.5,CA,Powell River,3627.0,0,0
CYPX,medium_airport,Puvirnituq Airport,60.050598,-77.286903,CA,Puvirnituq,6299.0,0,0
CYPY,medium_airport,Fort Chipewyan Airport,58.7672004699707,-111.11699676513672,CA,Fort Chipewyan,5000.0,0,0
CYPZ,medium_airport,Burns Lake Airport,54.3764,-125.950996,CA,Burns Lake,5000.0,0,0
CYQA,medium_airport,Muskoka Airport,44.975376,-79.306546,CA,Gravenhurst,6000.0,0,0
CYQB,large_airport,Quebec Jean Lesage International Airport,46.7911,-71.393303,CA,Quebec,9000.0,0,0
CYQD,medium_airport,The Pas Airport,53.97140121459961,-101.09100341796876,CA,The Pas,5901.0,0,0
CYQF,medium_airport,Red Deer Regional Airport,52.182201,-113.893997,CA,Springbrook,7500.0,0,0
CYQG,medium_airport,Windsor Airport,42.27560043334961,-82.95559692382812,CA,Windsor,9000.0,0,0
CYQH,medium_airport,Watson Lake Airport,60.116839,-128.821993,CA,Watson Lake,5504.0,0,0
CYQI,medium_airport,Yarmouth Airport,43.82690048217773,-66.08809661865234,CA,Yarmouth,6000.0,0,0
CYQK,medium_airport,Kenora Airport,49.78829956054688,-94.36309814453124,CA,Kenora,5800.0,0,0
CYQL,medium_airport,Lethbridge County Airport,49.6302986145,-112.800003052,CA,Lethbridge,6500.0,0,0
CYQM,medium_airport,Greater Moncton Roméo LeBlanc International Airport,46.112202,-64.678596,CA,Moncton,10001.0,0,0
CYQN,medium_airport,Nakina Airport,50.18280029296875,-86.69640350341797,CA,Nakina,3500.0,0,0
CYQQ,medium_airport,Comox Valley Airport / CFB Comox,49.7108,-124.887001,CA,Comox,10000.0,0,0
CYQR,medium_airport,Regina International Airport,50.43190002441406,-104.66600036621094,CA,Regina,7900.0,0,0
CYQS,medium_airport,St Thomas Municipal Airport,42.77000045776367,-81.11080169677734,CA,St Thomas,5013.0,0,0
CYQT,medium_airport,Thunder Bay Airport,48.37189865112305,-89.32389831542969,CA,Thunder Bay,7318.0,0,0
CYQU,medium_airport,Grande Prairie Airport,55.1796989441,-118.885002136,CA,Grande Prairie,8502.0,0,0
CYQV,medium_airport,Yorkton Municipal Airport,51.26470184326172,-102.46199798583984,CA,Yorkton,4800.0,0,0
CYQW,medium_airport,North Battleford Airport,52.769409,-108.243742,CA,North Battleford,5000.0,0,0
CYQX,medium_airport,Gander International Airport / CFB Gander,48.936258,-54.567719,CA,Gander,10200.0,0,0
CYQY,medium_airport,Sydney / J.A. Douglas McCurdy Airport,46.1614,-60.047798,CA,Sydney,7070.0,0,0
CYQZ,medium_airport,Quesnel Airport,53.026100158691406,-122.51000213623048,CA,Quesnel,5500.0,0,0
CYRB,medium_airport,Resolute Bay Airport,74.7169036865,-94.9693984985,CA,Resolute Bay,6500.0,0,0
CYRI,medium_airport,Rivière-du-Loup Airport,47.76440048217773,-69.58470153808594,CA,Rivière-du-Loup,6000.0,0,0
CYRJ,medium_airport,Roberval Airport,48.519665,-72.265735,CA,Roberval,5000.0,0,0
CYRL,medium_airport,Red Lake Airport,51.06689834594727,-93.79309844970705,CA,Red Lake,5001.0,0,0
CYRO,medium_airport,Ottawa / Rockcliffe Airport,45.4603004456,-75.64610290530001,CA,Ottawa,3300.0,0,0
CYRP,medium_airport,Ottawa / Carp Airport,45.3191986084,-76.0222015381,CA,Ottawa,3937.0,0,0
CYRQ,medium_airport,Trois-Rivières Airport,46.35279846191406,-72.67939758300781,CA,Trois-Rivières,9006.0,0,0
CYRT,medium_airport,Rankin Inlet Airport,62.8114013672,-92.1157989502,CA,Rankin Inlet,6000.0,0,0
CYRV,medium_airport,Revelstoke Airport,50.962245,-118.184258,CA,Revelstoke,4800.0,0,0
CYSB,medium_airport,Sudbury Airport,46.625,-80.79889678955078,CA,Sudbury,6600.0,0,0
CYSC,medium_airport,Sherbrooke Airport,45.438599,-71.691399,CA,Sherbrooke,6000.0,0,0
CYSF,medium_airport,Stony Rapids Airport,59.250301361083984,-105.84100341796876,CA,Stony Rapids,5050.0,0,0
CYSG,medium_airport,Saint-Georges Airport,46.096401,-70.714699,CA,Saint-Georges,5108.0,0,0
CYSH,medium_airport,Smiths Falls-Montague (Russ Beach) Airport,44.945801,-75.940598,CA,Smiths Falls,4000.0,0,0
CYSJ,medium_airport,Saint John Airport,45.31610107421875,-65.89029693603516,CA,Saint John,7000.0,0,0
CYSL,medium_airport,Saint-Léonard Airport,47.157097,-67.836242,CA,Saint-Léonard,4000.0,0,0
CYSM,medium_airport,Fort Smith Airport,60.020302,-111.961998,CA,Fort Smith,6000.0,0,0
CYSN,medium_airport,Niagara District Airport,43.191598,-79.171686,CA,Niagara-on-the-Lake,5000.0,0,0
CYSP,medium_airport,Marathon Airport,48.75529861450195,-86.34439849853516,CA,Marathon,3933.0,0,0
CYSU,medium_airport,Summerside Airport,46.440601,-63.833599,CA,Slemon Park,8000.0,0,0
CYTA,medium_airport,Pembroke Airport,45.86439895629883,-77.25170135498047,CA,Pembroke,5000.0,0,0
CYTF,medium_airport,Alma Airport,48.5089,-71.641899,CA,Alma,5000.0,0,0
CYTH,medium_airport,Thompson Airport,55.80110168457031,-97.86419677734376,CA,Thompson,5800.0,0,0
CYTR,medium_airport,CFB Trenton,44.118900299072266,-77.5280990600586,CA,Trenton,10000.0,0,0
CYTS,medium_airport,Timmins/Victor M. Power,48.5696983337,-81.376701355,CA,Timmins,6000.0,0,0
CYTZ,medium_airport,Billy Bishop Toronto City Centre Airport,43.627499,-79.396202,CA,Toronto,3988.0,0,0
CYUL,large_airport,Montreal / Pierre Elliott Trudeau International Airport,45.467837,-73.742294,CA,Montréal,11000.0,1,0
CYUX,medium_airport,Hall Beach Airport,68.7761,-81.2425,CA,Sanirajak,5410.0,0,0
CYUY,medium_airport,Rouyn Noranda Airport,48.20610046386719,-78.83560180664062,CA,Rouyn-Noranda,7485.0,0,0
CYVB,medium_airport,Bonaventure Airport,48.071098,-65.460297,CA,Bonaventure,5985.0,0,0
CYVC,medium_airport,La Ronge Airport,55.1514015198,-105.262001038,CA,La Ronge,5000.0,0,0
CYVD,medium_airport,Virden / RJ (Bob) Andrew Field Regional Aerodrome,49.8783,-100.917999,CA,Virden,4000.0,0,0
CYVK,medium_airport,Vernon Regional Airport,50.246163,-119.330963,CA,Vernon,3360.0,0,0
CYVO,medium_airport,Val-d'Or Airport,48.0532989502,-77.7827987671,CA,Val-d'Or,10000.0,0,0
CYVP,medium_airport,Kuujjuaq Airport,58.096099853515625,-68.4269027709961,CA,Kuujjuaq,6000.0,0,0
CYVQ,medium_airport,Norman Wells Airport,65.28160095214844,-126.7979965209961,CA,Norman Wells,5998.0,0,0
CYVR,large_airport,Vancouver International Airport,49.193901062,-123.183998108,CA,Vancouver,11500.0,1,0
CYVV,medium_airport,Wiarton Airport,44.7458,-81.107201,CA,Wiarton,5021.0,0,0
CYWG,large_airport,Winnipeg / James Armstrong Richardson International Airport,49.9099998474,-97.2398986816,CA,Winnipeg,11000.0,1,0
CYWK,medium_airport,Wabush Airport,52.92190170288086,-66.8644027709961,CA,Wabush,6002.0,0,0
CYWL,medium_airport,Williams Lake Airport,52.1831016541,-122.054000854,CA,Williams Lake,7000.0,0,0
CYWY,medium_airport,Wrigley Airport,63.20940017700195,-123.43699645996094,CA,Wrigley,3500.0,0,0
CYXC,medium_airport,Cranbrook/Canadian Rockies International Airport,49.610801696777,-115.78199768066,CA,Cranbrook,6000.0,0,0
CYXE,medium_airport,Saskatoon John G. Diefenbaker International Airport,52.17079925537109,-106.6999969482422,CA,Saskatoon,8300.0,0,0
CYXH,medium_airport,Medicine Hat Regional Airport,50.018902,-110.721001,CA,Medicine Hat,5000.0,0,0
CYXJ,medium_airport,Fort St John / North Peace Regional Airport,56.238098,-120.739998,CA,Fort Saint John,6909.0,0,0
CYXK,medium_airport,Rimouski Airport,48.477644,-68.496323,CA,Rimouski,4600.0,0,0
CYXL,medium_airport,Sioux Lookout Airport,50.11389923095703,-91.9052963256836,CA,Sioux Lookout,5300.0,0,0
CYXQ,medium_airport,Beaver Creek Airport,62.410301208496094,-140.86700439453125,CA,Beaver Creek,3745.0,0,0
CYXR,medium_airport,Earlton (Timiskaming Regional) Airport,47.6974006546,-79.8473453522,CA,Earlton,5998.0,0,0
CYXS,medium_airport,Prince George Airport,53.884311,-122.666554,CA,Prince George,11450.0,0,0
CYXT,medium_airport,Northwest Regional Airport Terrace-Kitimat,54.468498,-128.576009,CA,Terrace,7497.0,0,0
CYXU,medium_airport,London Airport,43.035599,-81.1539,CA,London,8800.0,0,0
CYXX,medium_airport,Abbotsford International Airport,49.025299,-122.361,CA,Abbotsford,9600.0,0,0
CYXY,medium_airport,Whitehorse / Erik Nielsen International Airport,60.709599,-135.067001,CA,Whitehorse,9497.0,0,0
CYXZ,medium_airport,Wawa Airport,47.96670150756836,-84.78669738769531,CA,Wawa,4429.0,0,0
CYYB,medium_airport,North Bay Jack Garland Airport,46.363602,-79.422798,CA,North Bay,10000.0,0,0
CYYC,large_airport,Calgary International Airport,51.118822,-114.009933,CA,Calgary,14000.0,1,0
CYYD,medium_airport,Smithers Airport,54.82469940185547,-127.18299865722656,CA,Smithers,5000.0,0,0
CYYE,medium_airport,Fort Nelson Airport,58.8363990784,-122.597000122,CA,Fort Nelson,6400.0,0,0
CYYF,medium_airport,Penticton Airport,49.46310043334961,-119.60199737548828,CA,Penticton,6000.0,0,0
CYYG,medium_airport,Charlottetown Airport,46.290000915527344,-63.12110137939453,CA,Charlottetown,7002.0,0,0
CYYJ,medium_airport,Victoria International Airport,48.647201,-123.427792,CA,Victoria,7000.0,0,0
CYYL,medium_airport,Lynn Lake Airport,56.86389923095703,-101.07599639892578,CA,Lynn Lake,5000.0,0,0
CYYN,medium_airport,Swift Current Airport,50.2919006348,-107.691001892,CA,Swift Current,4250.0,0,0
CYYQ,medium_airport,Churchill Airport,58.739200592041016,-94.06500244140624,CA,Churchill,9200.0,0,0
CYYR,medium_airport,Goose Bay Airport,53.3191986084,-60.4258003235,CA,Goose Bay,11046.0,0,0
CYYT,large_airport,St. John's International Airport,47.618599,-52.7519,CA,St. John's,8502.0,0,0
CYYU,medium_airport,Kapuskasing Airport,49.411587,-82.469645,CA,Kapuskasing,5500.0,0,0
CYYW,medium_airport,Armstrong Airport,50.29029846191406,-88.90969848632812,CA,Armstrong,4000.0,0,0
CYYY,medium_airport,Mont Joli Airport,48.60860061645508,-68.20809936523438,CA,Mont-Joli,6000.0,0,0
CYYZ,large_airport,Toronto Lester B. Pearson International Airport,43.6772,-79.6306,CA,Toronto,11120.0,1,0
CYZE,medium_airport,Gore Bay Manitoulin Airport,45.8853,-82.567802,CA,Gore Bay,5500.0,0,0
CYZF,medium_airport,Yellowknife International Airport,62.462799,-114.440002,CA,Yellowknife,7500.0,0,0
CYZH,medium_airport,Slave Lake Airport,55.292945,-114.777276,CA,Slave Lake,5561.0,0,0
CYZP,medium_airport,Sandspit Airport,53.25429916379999,-131.813995361,CA,Sandspit,5120.0,0,0
CYZR,medium_airport,Chris Hadfield Airport,42.999401,-82.308899,CA,Sarnia,5100.0,0,0
CYZS,medium_airport,Coral Harbour Airport,64.1932983398,-83.3593978882,CA,Coral Harbour,5000.0,0,0
CYZT,medium_airport,Port Hardy Airport,50.68059921264648,-127.36699676513672,CA,Port Hardy,5000.0,0,0
CYZU,medium_airport,Whitecourt Airport,54.143902,-115.787003,CA,Whitecourt,5800.0,0,0
CYZV,medium_airport,Sept-Îles Airport,50.22330093383789,-66.2656021118164,CA,Sept-Îles,6552.0,0,0
CYZW,medium_airport,Teslin Airport,60.17279815673828,-132.7429962158203,CA,Teslin,5028.0,0,0
CYZX,medium_airport,CFB Greenwood,44.98440170288086,-64.91690063476562,CA,Greenwood,8000.0,0,0
CYZY,medium_airport,Mackenzie Airport,55.297786,-123.133907,CA,Mackenzie,5033.0,0,0
CZAM,medium_airport,Shuswap Regional Airport,50.682802,-119.228996,CA,Salmon Arm,4260.0,0,0
CZBB,medium_airport,Boundary Bay Airport,49.0742,-123.012001,CA,Delta,5606.0,0,0
CZBF,medium_airport,Bathurst Airport,47.6297,-65.738899,CA,South Tetagouche,5613.0,0,0
CZBM,medium_airport,Bromont (Roland Désourdy) Airport,45.290798,-72.741402,CA,Bromont,5000.0,0,0
CZEE,medium_airport,Kelsey Airport,56.0374984741,-96.5096969604,CA,Kelsey,2590.0,0,0
CZFA,medium_airport,Faro Airport,62.20750045776367,-133.37600708007812,CA,Faro,4000.0,0,0
CZGF,medium_airport,Grand Forks Airport,49.015598,-118.431,CA,Grand Forks,4300.0,0,0
CZJG,medium_airport,Jenpeg Airport,54.51890182495117,-98.0460968017578,CA,Jenpeg,3800.0,0,0
CZJN,medium_airport,Swan River Airport,52.120602,-101.236,CA,Swan River,3933.0,0,0
CZLQ,medium_airport,Thicket Portage Airport,55.31890106201172,-97.70780181884766,CA,Thicket Portage,2220.0,0,0
CZMN,medium_airport,Pikwitonei Airport,55.58890151977539,-97.16419982910156,CA,Pikwitonei,2200.0,0,0
CZMT,medium_airport,Masset Airport,54.0275,-132.125,CA,Masset,5000.0,0,0
CZPC,medium_airport,Pincher Creek Airport,49.520429,-113.997002,CA,Pincher Creek,6600.0,0,0
CZSJ,medium_airport,Sandy Lake Airport,53.06420135498047,-93.34439849853516,CA,Sandy Lake,3500.0,0,0
CZST,medium_airport,Stewart Airport,55.935410448,-129.982434511,CA,Stewart,3900.0,0,0
CZUC,medium_airport,Ignace Municipal Airport,49.428204,-91.720418,CA,Ignace,3512.0,0,0
DAAB,medium_airport,Blida Airport,36.503601,2.81417,DZ,Blida,5833.0,0,0
DAAD,medium_airport,Bou Saada Airport,35.3325,4.20639,DZ,Ouled Sidi Brahim,7218.0,0,0
DAAE,medium_airport,Soummam–Abane Ramdane Airport,36.711952,5.069804,DZ,Béjaïa,7874.0,0,0
DAAG,large_airport,Houari Boumediene Airport,36.693886,3.214531,DZ,Algiers,11483.0,1,1
DAAJ,medium_airport,Djanet Inedbirene Airport,24.292801,9.45244,DZ,Djanet,9843.0,0,0
DAAK,medium_airport,Boufarik Air Base,36.545799,2.87611,DZ,Boufarik,11883.0,0,0
DAAP,medium_airport,Illizi Takhamalt Airport,26.723499,8.62265,DZ,Illizi,9843.0,0,0
DAAS,medium_airport,Ain Arnat Airport,36.178100585900005,5.32449007034,DZ,Sétif,9498.0,0,0
DAAT,medium_airport,Aguenar – Hadj Bey Akhamok Airport,22.811501,5.45108,DZ,Tamanrasset,11811.0,0,0
DAAV,medium_airport,Jijel Ferhat Abbas Airport,36.795101,5.87361,DZ,Tahir,7874.0,0,0
DAAY,medium_airport,Mecheria Airport,33.535900116,-0.242353007197,DZ,Mecheria,11780.0,0,0
DAAZ,medium_airport,Relizane Airport,35.752955,0.625877,DZ,Relizane,4265.0,0,0
DABB,medium_airport,Annaba Rabah Bitat Airport,36.826781,7.81334,DZ,Annaba,9843.0,0,0
DABC,medium_airport,Mohamed Boudiaf International Airport,36.2760009765625,6.620389938354492,DZ,Constantine,9843.0,0,0
DABS,medium_airport,Cheikh Larbi Tébessi Airport,35.4315986633,8.12071990967,DZ,Tébessi,9843.0,0,0
DABT,medium_airport,Batna Mostefa Ben Boulaid Airport,35.752102,6.30859,DZ,Batna,9843.0,0,0
DAFH,medium_airport,Hassi R'Mel Airport,32.930401,3.31154,DZ,Hassi R'Mel,9835.0,0,0
DAOB,medium_airport,Abdelhafid Boussouf Bou Chekif Airport,35.341099,1.46315,DZ,Tiaret,9843.0,0,0
DAOF,medium_airport,Tindouf Airport,27.7003993988,-8.167099952700001,DZ,Tindouf,9840.0,0,0
DAOI,medium_airport,Chlef Aboubakr Belkaid International Airport,36.217166,1.342237,DZ,Chlef,8793.0,0,0
DAOL,medium_airport,Oran Tafraoui Airport,35.5424,-0.532278,DZ,Tafraoui,9037.0,0,0
DAON,medium_airport,Zenata – Messali El Hadj Airport,35.013426,-1.457191,DZ,Zenata,8530.0,0,0
DAOO,medium_airport,Oran Es-Sénia (Ahmed Ben Bella) International Airport,35.623901,-0.621183,DZ,Es-Sénia,11811.0,0,0
DAOR,medium_airport,Béchar Boudghene Ben Ali Lotfi Airport,31.64570045471192,-2.269860029220581,DZ,Béchar,12245.0,0,0
DAOV,medium_airport,Ghriss Airport,35.207699,0.147142,DZ,Ghriss,5577.0,0,0
DAUA,medium_airport,Touat Cheikh Sidi Mohamed Belkebir Airport,27.837601,-0.186414,DZ,Adrar,9843.0,0,0
DAUB,medium_airport,Biskra - Mohamed Khider Airport,34.793301,5.73823,DZ,Biskra,9469.0,0,0
DAUE,medium_airport,El Golea Airport,30.580732,2.861595,DZ,El Menia,9843.0,0,0
DAUG,medium_airport,Noumérat - Moufdi Zakaria Airport,32.384102,3.79411,DZ,El Atteuf,10171.0,0,0
DAUH,medium_airport,Hassi Messaoud-Oued Irara Krim Belkacem Airport,31.673,6.14044,DZ,Hassi Messaoud,9843.0,0,0
DAUI,medium_airport,In Salah Airport,27.250999,2.51202,DZ,In Salah,9843.0,0,0
DAUK,medium_airport,Touggourt Sidi Madhi Airport,33.067799,6.08867,DZ,Touggourt,9843.0,0,0
DAUL,medium_airport,Laghouat - Molay Ahmed Medeghri Airport,33.7644,2.92834,DZ,Laghouat,12486.0,0,0
DAUO,medium_airport,Guemar Airport - مطار قمار بالوادي,33.511398,6.77679,DZ,Guemar,9843.0,0,0
DAUT,medium_airport,Timimoun Airport,29.237101,0.276033,DZ,Timimoun,9843.0,0,0
DAUU,medium_airport,Ain Beida Airport,31.9172,5.41278,DZ,Ouargla,10171.0,0,0
DAUZ,medium_airport,Zarzaitine - In Aménas Airport,28.0515,9.64291,DZ,In Aménas,9843.0,0,0
DBBB,medium_airport,Cadjehoun Airport,6.357230186462402,2.384350061416626,BJ,Cotonou,7874.0,0,0
DFFD,medium_airport,Ouagadougou Airport,12.3532,-1.51242,BF,Ouagadougou,9843.0,0,0
DFOO,medium_airport,Bobo Dioulasso Airport,11.160099983215332,-4.33096981048584,BF,Bobo Dioulasso,10826.0,0,0
DGAA,large_airport,Kotoka International Airport,5.605189800262451,-0.1667860001325607,GH,Accra,11165.0,1,1
DGAH,medium_airport,Ho Airport,6.579691,0.532547,GH,Ho,5266.0,0,0
DGLE,medium_airport,Tamale Airport,9.55718994140625,-0.8632140159606934,GH,Tamale,7999.0,0,0
DGSI,medium_airport,Kumasi Airport,6.714560031890869,-1.5908199548721311,GH,Kumasi,6502.0,0,0
DGSN,medium_airport,Sunyani Airport,7.36183,-2.32876,GH,Sunyani,4227.0,0,0
DGTK,medium_airport,Takoradi Airport,4.896059989929199,-1.7747600078582764,GH,Sekondi-Takoradi,5745.0,0,0
DIAP,medium_airport,Félix-Houphouët-Boigny International Airport,5.26139,-3.92629,CI,Abidjan,9843.0,0,0
DIBK,medium_airport,Bouaké Airport,7.7388,-5.07367,CI,Bouaké,10827.0,0,0
DIDL,medium_airport,Daloa Airport,6.79281,-6.47319,CI,,6562.0,0,0
DIKO,medium_airport,Korhogo Airport,9.38718,-5.55666,CI,Korhogo,6890.0,0,0
DIMN,medium_airport,Man Airport,7.27207,-7.58736,CI,,6726.0,0,0
DISP,medium_airport,San Pedro Airport,4.74672,-6.66082,CI,,6234.0,0,0
DIYO,medium_airport,Yamoussoukro Airport,6.9031701088,-5.36558008194,CI,Yamoussoukro,9843.0,0,0
DNAA,large_airport,Nnamdi Azikiwe International Airport,9.00679,7.26317,NG,Abuja,11842.0,1,1
DNAI,medium_airport,Akwa Ibom International Airport,4.8725,8.093,NG,Uyo,11811.0,0,0
DNAK,medium_airport,Akure Airport,7.246739864349365,5.3010101318359375,NG,Akure,9195.0,0,0
DNAS,medium_airport,Asaba International Airport,6.204167,6.665278,NG,Asaba,11155.0,0,0
DNBC,medium_airport,Sir Abubakar Tafawa Balewa International Airport,10.482833,9.744,NG,Bauchi,11154.0,0,0
DNBE,medium_airport,Benin Airport,6.316979885101318,5.599500179290772,NG,Benin,7870.0,0,0
DNBY,medium_airport,Bayelsa International Airport,4.95759,6.203327,NG,Yenagoa,12139.0,0,0
DNCA,medium_airport,Margaret Ekpo International Airport,4.976019859313965,8.347200393676758,NG,Calabar,8040.0,0,0
DNEN,medium_airport,Akanu Ibiam International Airport,6.474269866943359,7.561960220336914,NG,Enegu,7879.0,0,0
DNGO,medium_airport,Gombe Lawanti International Airport,10.298889,10.9,NG,Gombe,10827.0,0,0
DNGU,medium_airport,Gusau Airport,12.17286,6.696136,NG,Gusau,4800.0,0,0
DNIB,medium_airport,Ibadan Airport,7.362460136413574,3.97832989692688,NG,Ibadan,7875.0,0,0
DNIL,medium_airport,Ilorin International Airport,8.440210342407227,4.493919849395752,NG,Ilorin,10169.0,0,0
DNIM,medium_airport,Sam Mbakwe International Airport,5.427060127258301,7.206029891967773,NG,Owerri,8858.0,0,0
DNJO,medium_airport,Yakubu Gowon Airport,9.639829635620115,8.869050025939941,NG,Jos,9845.0,0,0
DNKA,medium_airport,Kaduna Airport,10.696000099182127,7.320109844207764,NG,Kaduna,9843.0,0,0
DNKN,medium_airport,Mallam Aminu International Airport,12.0476,8.52462,NG,Kano,10831.0,0,0
DNMA,medium_airport,Maiduguri International Airport,11.855299949645996,13.080900192260742,NG,Maiduguri,9846.0,0,0
DNMK,medium_airport,Makurdi Airport,7.70388,8.61394,NG,Makurdi,9830.0,0,0
DNMM,large_airport,Murtala Muhammed International Airport,6.57737,3.32116,NG,Lagos,12794.0,1,1
DNMN,medium_airport,Minna Airport,9.652170181274414,6.462259769439697,NG,Minna,11153.0,0,0
DNPO,medium_airport,Port Harcourt International Airport,5.0154900550842285,6.94959020614624,NG,Port Harcourt,9846.0,0,0
DNSO,medium_airport,Sadiq Abubakar III International Airport,12.916299819946287,5.207190036773682,NG,Sokoto,9844.0,0,0
DNSU,medium_airport,Warri Airport,5.59821,5.8187,NG,Okpe,6868.0,0,0
DNYO,medium_airport,Yola Airport,9.257550239562988,12.430399894714355,NG,Yola,9840.0,0,0
DNZA,medium_airport,Zaria Airport,11.1302,7.68581,NG,Zaria,5462.0,0,0
DRRM,medium_airport,Maradi Airport,13.5025,7.12675,NE,Maradi,6070.0,0,0
DRRN,large_airport,Diori Hamani International Airport,13.4815,2.18361,NE,Niamey,10499.0,1,1
DRRT,medium_airport,Tahoua Airport,14.8757,5.26536,NE,Tahoua,7053.0,0,0
DRZA,medium_airport,Mano Dayak International Airport,16.965999603271484,8.000109672546387,NE,Agadez,9843.0,0,0
DRZR,medium_airport,Zinder Airport,13.779000282287598,8.983759880065918,NE,Zinder,5988.0,0,0
DTKA,medium_airport,Tabarka-Aïn Draham International Airport,36.98,8.87694,TN,Tabarka,9416.0,0,0
DTMB,medium_airport,Monastir Habib Bourguiba International Airport,35.75809860229492,10.75469970703125,TN,Monastir,9678.0,0,0
DTNH,medium_airport,Enfidha - Hammamet International Airport,36.075833,10.438611,TN,Enfidha,10827.0,0,0
DTTA,large_airport,Tunis Carthage International Airport,36.851002,10.2272,TN,Tunis,10499.0,1,1
DTTB,medium_airport,Bizerte Sidi Ahmed Air Base,37.242356,9.787016,TN,Borj Challouf,9845.0,0,0
DTTD,medium_airport,Remada Air Base,32.306198,10.3821,TN,Remada,7812.0,0,0
DTTF,medium_airport,Gafsa Ksar International Airport,34.422000885009766,8.822500228881836,TN,Gafsa,9514.0,0,0
DTTG,medium_airport,Gabès Matmata International Airport,33.733691,9.91941,TN,Gabès,3702.0,0,0
DTTJ,medium_airport,Djerba Zarzis International Airport,33.875,10.7755,TN,Mellita,10171.0,0,0
DTTR,medium_airport,El Borma Airport,31.7043,9.25462,TN,El Borma,8858.0,0,0
DTTX,medium_airport,Sfax Thyna International Airport,34.71799850463867,10.690999984741213,TN,Sfax,9843.0,0,0
DTTZ,medium_airport,Tozeur Nefta International Airport,33.939701080322266,8.110560417175293,TN,Tozeur,10581.0,0,0
DXNG,medium_airport,Niamtougou International Airport,9.767330169677734,1.091249942779541,TG,Niamtougou,8202.0,0,0
DXXX,medium_airport,Lomé–Tokoin International Airport,6.16561,1.25451,TG,Lomé,9847.0,0,0
EBAW,medium_airport,Antwerp International Airport (Deurne),51.190667,4.463153,BE,Antwerp,4954.0,0,0
EBBE,medium_airport,Beauvechain Air Base,50.758598,4.76833,BE,Beauvechain,10085.0,0,0
EBBL,medium_airport,Kleine Brogel Air Base,51.168301,5.47,BE,Kleine Brogel,10158.0,0,0
EBBR,large_airport,Brussels Airport,50.901402,4.48444,BE,Zaventem,11936.0,1,1
EBCI,medium_airport,Brussels South Charleroi Airport,50.460982,4.457158,BE,Charleroi,10023.0,0,0
EBCV,medium_airport,Chièvres Air Base,50.575801849365234,3.8310000896453857,BE,Chièvres,8197.0,0,0
EBFN,medium_airport,Koksijde Air Base,51.090302,2.65278,BE,Koksijde,8786.0,0,0
EBFS,medium_airport,Florennes Air Base,50.2433013916,4.64583015442,BE,Florennes,11105.0,0,0
EBKT,medium_airport,Flanders International Airport Kortrijk-Wevelgem,50.818878,3.209551,BE,Wevelgem,6234.0,0,0
EBLG,medium_airport,Liège Airport,50.638574,5.443897,BE,Grâce-Hollogne,12106.0,0,0
EBOS,medium_airport,Oostende-Brugge International Airport,51.1998,2.874673,BE,Oostende,10499.0,0,0
EDAC,medium_airport,Leipzig–Altenburg Airport,50.981945,12.506389,DE,Nobitz,7333.0,0,0
EDAH,medium_airport,Heringsdorf Airport,53.8787,14.1523,DE,Zirchow,7562.0,0,0
EDBN,medium_airport,Neubrandenburg Trollenhagen Airport,53.6022,13.306,DE,Trollenhagen,7522.0,0,0
EDBR,medium_airport,Rothenburg/Görlitz Airfield,51.363335,14.95,DE,Rothenburg/Oberlausitz,8202.0,0,0
EDDB,large_airport,Berlin Brandenburg Airport,52.362247,13.500672,DE,Berlin,13123.0,1,1
EDDC,medium_airport,Dresden Airport,51.134123,13.767831,DE,Dresden,9350.0,0,0
EDDE,medium_airport,Erfurt-Weimar Airport,50.979801,10.9581,DE,Erfurt,8530.0,0,0
EDDF,large_airport,Frankfurt Airport,50.030241,8.561096,DE,Frankfurt am Main,13123.0,1,1
EDDG,medium_airport,Münster Osnabrück Airport,52.134602,7.68483,DE,Greven,7119.0,0,0
EDDH,large_airport,Hamburg Helmut Schmidt Airport,53.630402,9.98823,DE,Hamburg,12028.0,1,1
EDDK,large_airport,Cologne Bonn Airport,50.865898,7.14274,DE,Köln (Cologne),12516.0,1,1
EDDL,large_airport,Düsseldorf Airport,51.289501,6.76678,DE,Düsseldorf,9842.0,0,1
EDDM,large_airport,Munich Airport,48.353802,11.7861,DE,Munich,13123.0,1,1
EDDN,large_airport,Nuremberg Airport,49.498699,11.078056,DE,Nuremberg,8858.0,0,1
EDDP,large_airport,Leipzig/Halle Airport,51.420657,12.232705,DE,Schkeuditz,11811.0,1,1
EDDR,medium_airport,Saarbrücken Airport,49.2145996094,7.10950994492,DE,Saarbrücken,6562.0,0,0
EDDS,large_airport,Stuttgart Airport,48.689899,9.22196,DE,Stuttgart,10974.0,1,1
EDDV,large_airport,Hannover Airport,52.461102,9.68508,DE,Hannover,10499.0,1,1
EDDW,medium_airport,Bremen Airport,53.046786,8.78932,DE,Bremen,8642.0,0,0
EDFE,medium_airport,Frankfurt-Egelsbach Airport,49.96,8.643043,DE,Egelsbach,4593.0,0,0
EDFH,medium_airport,Frankfurt-Hahn Airport,49.9487,7.26389,DE,Frankfurt am Main (Lautzenhausen),12467.0,0,0
EDFM,medium_airport,Mannheim-City Airport,49.473057,8.514167,DE,Mannheim,3497.0,0,0
EDFZ,medium_airport,Mainz-Finthen Airfield,49.967499,8.147222,DE,Mainz,3281.0,0,0
EDGE,medium_airport,Eisenach-Kindel Airport,50.991604,10.47973,DE,Hörselberg-Hainich,5643.0,0,0
EDGS,medium_airport,Siegerland Airport,50.707699,8.08297,DE,Burbach,5315.0,0,0
EDHI,medium_airport,Hamburg-Finkenwerder Airport,53.5352783203125,9.835556030273438,DE,Hamburg,8629.0,0,0
EDHK,medium_airport,Kiel-Holtenau Airport,54.37957,10.145266,DE,Kiel,4134.0,0,0
EDHL,medium_airport,Lübeck Blankensee Airport,53.805401,10.7192,DE,Lübeck,6896.0,0,0
EDJA,medium_airport,Memmingen Allgau Airport,47.9888000488,10.2395000458,DE,Memmingen,8629.0,0,0
EDLN,medium_airport,Mönchengladbach Airport,51.230278,6.504444,DE,Mönchengladbach,3937.0,0,0
EDLP,medium_airport,Paderborn Lippstadt Airport,51.614101,8.61632,DE,Büren,7152.0,0,0
EDLV,medium_airport,Weeze Airport,51.6024017334,6.14216995239,DE,Weeze,8005.0,0,0
EDLW,medium_airport,Dortmund Airport,51.518299,7.61224,DE,Dortmund,6562.0,0,0
EDMA,medium_airport,Augsburg Airport,48.425278,10.931667,DE,Augsburg,5230.0,0,0
EDMO,medium_airport,Oberpfaffenhofen Airport,48.081402,11.2831,DE,Weßling,7500.0,0,0
EDNY,medium_airport,Friedrichshafen Airport,47.671299,9.51149,DE,Friedrichshafen,7729.0,0,0
EDQA,medium_airport,Bamberg-Breitenau Airfield,49.920403,10.914233,DE,Bamberg,4111.0,0,0
EDQD,medium_airport,Bayreuth Airport,49.985001,11.64,DE,Bindlach,3550.0,0,0
EDQM,medium_airport,Hof-Plauen Airport,50.288544,11.852876,DE,Hof,4856.0,0,0
EDSB,medium_airport,Karlsruhe Baden-Baden Airport,48.7794,8.0805,DE,Rheinmünster,9787.0,0,0
EDTD,medium_airport,Donaueschingen-Villingen Airfield,47.973331,8.522222,DE,Donaueschingen,4232.0,0,0
EDTL,medium_airport,Lahr Airport,48.369301,7.82772,DE,Lahr/Schwarzwald,9842.0,0,0
EDTM,medium_airport,Mengen-Hohentengen Airfield,48.05389,9.372778,DE,Mengen,5138.0,0,0
EDTY,medium_airport,Adolf Würth Airport,49.118332,9.783889,DE,Schwäbisch Hall,5053.0,0,0
EDVE,medium_airport,Braunschweig-Wolfsburg Airport,52.319199,10.5561,DE,Braunschweig,7546.0,0,0
EDVK,medium_airport,Kassel Airport,51.420699,9.392152,DE,Calden,8202.0,0,0
EDXW,medium_airport,Westerland Sylt Airport,54.9132,8.34047,DE,Sylt,6955.0,0,0
EEEI,medium_airport,Ämari Air Base,59.259599,24.204799,EE,Keila,6562.0,0,0
EEKA,medium_airport,Kärdla Airport,58.99079895019531,22.830699920654297,EE,Kärdla,4987.0,0,0
EEKE,medium_airport,Kuressaare Airport,58.22990036010742,22.50950050354004,EE,Kuressaare,4980.0,0,0
EEPU,medium_airport,Pärnu Airport,58.41899871826172,24.47279930114746,EE,Pärnu,6463.0,0,0
EES,medium_airport,Berenice International Airport / Banas Cape Air Base,23.980437,35.460277,EG,Berenice Troglodytica,9930.0,0,0
EETN,large_airport,Lennart Meri Tallinn Airport,59.413246,24.83264,EE,Tallinn,11417.0,1,1
EETU,medium_airport,Tartu Airport,58.307438,26.686473,EE,Reola,5905.0,0,0
EFET,medium_airport,Enontekio Airport,68.362602233887,23.424299240112,FI,Enontekio,6565.0,0,0
EFHA,medium_airport,Halli Airport,61.856039,24.786686,FI,Jämsä,8533.0,0,0
EFHK,large_airport,Helsinki Vantaa Airport,60.318363,24.963341,FI,Helsinki (Vantaa),11286.0,1,1
EFIT,medium_airport,Kitee Airport,62.1661,30.073601,FI,Kitee,4921.0,0,0
EFIV,medium_airport,Ivalo Airport,68.607299804688,27.405300140381,FI,Ivalo,8199.0,0,0
EFJO,medium_airport,Joensuu Airport,62.658815,29.619398,FI,Joensuu,8202.0,0,0
EFJY,medium_airport,Jyväskylä Airport,62.399502,25.678301,FI,Jyväskylän Maalaiskunta,8533.0,0,0
EFKA,medium_airport,Kauhava Airfield,63.127102,23.051399,FI,Kauhava,8858.0,0,0
EFKE,medium_airport,Kemi-Tornio Airport,65.778701782227,24.582099914551,FI,Kemi / Tornio,8212.0,0,0
EFKI,medium_airport,Kajaani Airport,64.2855,27.6924,FI,Kajaani,8199.0,0,0
EFKJ,medium_airport,Kauhajoki Airfield,62.463212,22.390817,FI,Kauhajoki,3806.0,0,0
EFKK,medium_airport,Kokkola-Pietarsaari Airport,63.721199,23.143101,FI,Kokkola / Kruunupyy,8202.0,0,0
EFKS,medium_airport,Kuusamo Airport,65.987602,29.239401,FI,Kuusamo,8202.0,0,0
EFKT,medium_airport,Kittilä Airport,67.700996398926,24.846799850464,FI,Kittilä,8202.0,0,0
EFKU,medium_airport,Kuopio Airport,63.007099,27.7978,FI,Kuopio / Siilinjärvi,9186.0,0,0
EFLP,medium_airport,Lappeenranta Airport,61.044601,28.144743,FI,Lappeenranta,8202.0,0,0
EFMA,medium_airport,Mariehamn Airport,60.1222,19.898199,FI,Mariehamn,6243.0,0,0
EFMI,medium_airport,Mikkeli Airport,61.6866,27.201799,FI,Mikkeli,5584.0,0,0
EFOU,medium_airport,Oulu Airport,64.930099,25.354601,FI,Oulu / Oulunsalo,8205.0,0,0
EFPO,medium_airport,Pori Airport,61.4617,21.799999,FI,Pori,7713.0,0,0
EFPR,medium_airport,Helsinki East-Redstone Aerodrome,60.479167,26.593889,FI,Helsinki (Pyhtää),3280.0,0,0
EFRO,medium_airport,Rovaniemi Airport,66.564796447754,25.830400466919,FI,Rovaniemi,9849.0,0,0
EFSA,medium_airport,Savonlinna Airport,61.9431,28.945101,FI,Savonlinna,7546.0,0,0
EFSI,medium_airport,Seinäjoki Airport,62.692101,22.8323,FI,Seinäjoki / Ilmajoki,6562.0,0,0
EFSO,medium_airport,Sodankyla Airport,67.3949966431,26.6191005707,FI,Sodankyla,4921.0,0,0
EFTP,medium_airport,Tampere-Pirkkala Airport,61.414101,23.604401,FI,Tampere / Pirkkala,8858.0,0,0
EFTU,medium_airport,Turku Airport,60.514099,22.2628,FI,Turku,8202.0,0,0
EFUT,medium_airport,Utti Air Base,60.8964,26.9384,FI,Utti / Valkeala,6562.0,0,0
EFVA,medium_airport,Vaasa Airport,63.050701,21.762199,FI,Vaasa,8727.0,0,0
EFVR,medium_airport,Varkaus Airport,62.171101,27.868601,FI,Varkaus / Joroinen,6562.0,0,0
EFYL,medium_airport,Ylivieska Airfield,64.054722,24.725278,FI,Ylivieska,4921.0,0,0
EGAA,large_airport,Belfast International Airport,54.6575012207,-6.21582984924,GB,Belfast,9121.0,0,1
EGAB,medium_airport,Enniskillen/St Angelo Airport,54.398274,-7.651179,GB,"Enniskillen, Fermanagh and Omagh",4350.0,0,0
EGAC,medium_airport,George Best Belfast City Airport,54.618099,-5.8725,GB,Belfast,6001.0,0,0
EGAE,medium_airport,City of Derry Airport,55.04280090332031,-7.161109924316406,GB,Derry,6460.0,0,0
EGBB,large_airport,Birmingham Airport,52.453899,-1.74803,GB,"Birmingham, West Midlands",10013.0,1,1
EGBE,medium_airport,Coventry Airport,52.369701,-1.47972,GB,"Coventry, West Midlands",5988.0,0,0
EGBJ,medium_airport,Gloucestershire Airport,51.89419937133789,-2.167220115661621,GB,Staverton,4695.0,0,0
EGBN,medium_airport,Nottingham City Airport,52.919998,-1.07917,GB,Nottingham,3445.0,0,0
EGCC,large_airport,Manchester Airport,53.349375,-2.279521,GB,"Manchester, Greater Manchester",10007.0,1,1
EGDC,medium_airport,Royal Marines Base Chivenor,51.0872,-4.15034,GB,Chivenor,6014.0,0,0
EGDM,medium_airport,MoD Boscombe Down,51.152199,-1.74741,GB,"Salisbury, Wiltshire",10538.0,0,0
EGDR,medium_airport,RNAS Culdrose,50.08610153198242,-5.255710124969482,GB,Helston,6006.0,0,0
EGDX,medium_airport,MOD St Athan,51.405229,-3.433254,GB,"St Athan, Vale of Glamorgan",5997.0,0,0
EGDY,medium_airport,RNAS Yeovilton,51.009399,-2.63882,GB,"Yeovil, Somerset",7580.0,0,0
EGEC,medium_airport,Campbeltown Airport,55.437198638916016,-5.686389923095703,GB,Campbeltown,4633.0,0,0
EGED,medium_airport,Eday Airport,59.19060134887695,-2.7722198963165283,GB,Eday,1896.0,0,0
EGFE,medium_airport,Haverfordwest Airport,51.833099365234375,-4.9611101150512695,GB,Haverfordwest,5000.0,0,0
EGFF,medium_airport,Cardiff International Airport,51.396702,-3.34333,GB,Cardiff,7723.0,0,0
EGFH,medium_airport,Swansea Airport,51.601366,-4.071006,GB,Swansea,4429.0,0,0
EGGD,medium_airport,Bristol Airport,51.382702,-2.71909,GB,Bristol,6597.0,0,0
EGGP,medium_airport,Liverpool John Lennon Airport,53.333599,-2.84972,GB,Liverpool,7497.0,0,0
EGGW,large_airport,London Luton Airport,51.874699,-0.368333,GB,"Luton, Bedfordshire",7093.0,0,1
EGHH,medium_airport,Bournemouth Airport,50.780483,-1.839576,GB,Bournemouth,7454.0,0,0
EGHI,medium_airport,Southampton Airport,50.950298,-1.3568,GB,Southampton,6191.0,0,0
EGHL,medium_airport,Lasham Airfield,51.18744,-1.031663,GB,"Alton, Hampshire",5896.0,0,0
EGHQ,medium_airport,Cornwall Airport Newquay,50.440601,-4.99541,GB,Newquay,9003.0,0,0
EGJA,medium_airport,Alderney Airport,49.706104,-2.21472,GG,Saint Anne,2877.0,0,0
EGJB,medium_airport,Guernsey Airport,49.435001,-2.60197,GG,Saint Peter Port,5194.0,0,0
EGJJ,medium_airport,Jersey Airport,49.20790100097656,-2.195509910583496,JE,Saint Helier,5594.0,0,0
EGKA,medium_airport,Brighton City Airport,50.835602,-0.297222,GB,"Brighton, East Sussex",3385.0,0,0
EGKB,medium_airport,London Biggin Hill Airport,51.33079910279999,0.0324999988079,GB,London,5925.0,0,0
EGKK,large_airport,London Gatwick Airport,51.148771,-0.192089,GB,London,10883.0,1,1
EGLC,medium_airport,London City Airport,51.505299,0.055278,GB,London,4948.0,0,0
EGLF,medium_airport,Farnborough Airport,51.275799,-0.776333,GB,"Farnborough, Hampshire",8005.0,0,0
EGLK,medium_airport,Blackbushe Airport,51.323898,-0.8475,GB,"Camberley, Surrey",4380.0,0,0
EGLL,large_airport,London Heathrow Airport,51.4706,-0.461941,GB,London,12799.0,1,1
EGMC,medium_airport,London Southend Airport,51.570562,0.693627,GB,"Southend-on-Sea, Essex",6089.0,0,0
EGMD,medium_airport,Lydd London Ashford Airport,50.956246,0.939074,GB,"Romney Marsh, Kent",4938.0,0,0
EGNC,medium_airport,Carlisle Lake District Airport,54.9375,-2.80917,GB,"Carlisle, Cumbria",6000.0,0,0
EGNH,medium_airport,Blackpool Airport,53.771702,-3.02861,GB,Blackpool,6129.0,0,0
EGNJ,medium_airport,Humberside Airport,53.576152,-0.34954,GB,"Grimsby, Lincolnshire",7218.0,0,0
EGNL,medium_airport,Barrow Walney Island Airport,54.1286111,-3.2675,GB,Barrow-in-Furness,3438.0,0,0
EGNM,medium_airport,Leeds Bradford Airport,53.865898,-1.66057,GB,"Leeds, West Yorkshire",7381.0,0,0
EGNO,medium_airport,Warton Aerodrome,53.745098,-2.88306,GB,Warton,7946.0,0,0
EGNR,medium_airport,Hawarden Airport,53.178101,-2.97778,GB,Broughton,6867.0,0,0
EGNS,medium_airport,Isle of Man Airport,54.083302,-4.62389,IM,Castletown,6923.0,0,0
EGNT,medium_airport,Newcastle International Airport,55.037958,-1.689577,GB,"Newcastle upon Tyne, Tyne and Wear",7644.0,0,0
EGNV,medium_airport,Teesside International Airport,54.509201,-1.42941,GB,"Darlington, Durham",7516.0,0,0
EGNX,medium_airport,East Midlands Airport,52.8311,-1.32806,GB,Nottingham,9495.0,0,0
EGOS,medium_airport,RAF Shawbury,52.798199,-2.66804,GB,"Shrewsbury, Shropshire",6018.0,0,0
EGOV,medium_airport,Anglesey Airport,53.2481,-4.53534,GB,Angelsey,7513.0,0,0
EGPA,medium_airport,Kirkwall Airport,58.957801818847656,-2.9049999713897705,GB,Orkney Islands,4690.0,0,0
EGPB,medium_airport,Sumburgh Airport,59.878899,-1.29556,GB,"Lerwick, Shetland",4915.0,0,0
EGPC,medium_airport,Wick John O'Groats Airport,58.4589,-3.09306,GB,Wick,6007.0,0,0
EGPD,medium_airport,Aberdeen International Airport,57.2019,-2.19778,GB,Aberdeen,6407.0,0,0
EGPE,medium_airport,Inverness Airport,57.54249954223633,-4.047500133514404,GB,Inverness,6194.0,0,0
EGPF,large_airport,Glasgow Airport,55.871899,-4.43306,GB,Glasgow,8730.0,0,1
EGPH,large_airport,Edinburgh Airport,55.950145,-3.372288,GB,Edinburgh,8392.0,0,1
EGPI,medium_airport,Islay Airport,55.682708,-6.257525,GB,"Isle of Islay, Argyll and Bute",5098.0,0,0
EGPK,medium_airport,Glasgow Prestwick Airport,55.502003,-4.587019,GB,"Prestwick, South Ayrshire",9800.0,0,0
EGPL,medium_airport,Benbecula Airport,57.48109817504883,-7.362780094146728,GB,Balivanich,6027.0,0,0
EGPN,medium_airport,Dundee Airport,56.45249938964844,-3.025830030441284,GB,Dundee,4593.0,0,0
EGPO,medium_airport,Stornoway Airport,58.215599,-6.33111,GB,"Stornoway, Western Isles",7218.0,0,0
EGPR,medium_airport,Barra Airport,57.0228,-7.44306,GB,Eoligarry,2776.0,0,0
EGPU,medium_airport,Tiree Airport,56.49919891357422,-6.869170188903809,GB,Balemartine,4600.0,0,0
EGQL,medium_airport,Leuchars Station Airfield,56.37398,-2.868862,GB,"Leuchars, Fife",8491.0,0,0
EGQS,medium_airport,RAF Lossiemouth,57.7052001953125,-3.339169979095459,GB,Lossiemouth,9091.0,0,0
EGSC,medium_airport,Cambridge City Airport,52.205002,0.175,GB,"Cambridge, Cambridgeshire",6444.0,0,0
EGSH,medium_airport,Norwich Airport,52.6758,1.28278,GB,"Norwich, Norfolk",6043.0,0,0
EGSS,large_airport,London Stansted Airport,51.884998,0.235,GB,London,10003.0,1,1
EGTC,medium_airport,Cranfield Airport,52.072201,-0.616667,GB,"Bedford, Bedfordshire",5902.0,0,0
EGTE,medium_airport,Exeter International Airport,50.734261,-3.413984,GB,"Exeter, Devon",6811.0,0,0
EGTK,medium_airport,London Oxford Airport,51.836899,-1.32,GB,"Kidlington, Oxfordshire",5006.0,0,0
EGUB,medium_airport,RAF Benson,51.614366,-1.095991,GB,"Wallingford, Oxfordshire",5981.0,0,0
EGUL,medium_airport,RAF Lakenheath,52.40954,0.561161,GB,"Brandon, Suffolk",8998.0,0,0
EGUN,medium_airport,RAF Mildenhall,52.3619,0.486406,GB,"Bury Saint Edmunds, Suffolk",9213.0,0,0
EGUW,medium_airport,Wattisham Airfield,52.127451,0.956189,GB,"Ipswich, Suffolk",7953.0,0,0
EGVA,medium_airport,RAF Fairford,51.683568,-1.789172,GB,"Fairford, Gloucestershire",9994.0,0,0
EGVN,medium_airport,RAF Brize Norton,51.75,-1.58362,GB,"Carterton, Oxfordshire",10007.0,0,0
EGVO,medium_airport,RAF Odiham,51.2341,-0.942825,GB,"Hook, Hampshire",6030.0,0,0
EGWC,medium_airport,RAF Cosford,52.639999,-2.30558,GB,Cosford,3890.0,0,0
EGWU,medium_airport,RAF Northolt,51.553001,-0.418167,GB,London,5545.0,0,0
EGXC,medium_airport,RAF Coningsby,53.092999,-0.166014,GB,"Lincoln, Lincolnshire",9003.0,0,0
EGXE,medium_airport,RAF Leeming,54.297191,-1.538944,GB,"Northallerton, North Yorkshire",7516.0,0,0
EGXG,medium_airport,Leeds East Airport,53.834747,-1.194678,GB,"Tadcaster, North Yorkshire",6158.0,0,0
EGXH,medium_airport,RAF Honington,52.342602,0.772939,GB,"Bury Saint Edmunds, Suffolk",9012.0,0,0
EGXT,medium_airport,RAF Wittering,52.612598,-0.476453,GB,"Peterborough, Cambridgeshire",9052.0,0,0
EGXW,medium_airport,RAF Waddington,53.166199,-0.523811,GB,"Lincoln, Lincolnshire",9642.0,0,0
EGXZ,medium_airport,RAF Topcliffe,54.204116,-1.380265,GB,"Thirsk, North Yorkshire",5948.0,0,0
EGYD,medium_airport,RAF Cranwell,53.0303,-0.483242,GB,"Sleaford, Lincolnshire",6831.0,0,0
EGYE,medium_airport,RAF Barkston Heath,52.960616,-0.559428,GB,"Grantham, Lincolnshire",5722.0,0,0
EGYM,medium_airport,RAF Marham,52.648395,0.550692,GB,"King's Lynn, Norfolk",9131.0,0,0
EGYP,medium_airport,Mount Pleasant Airport,-51.82279968261719,-58.44720077514648,FK,Mount Pleasant,8497.0,0,0
EHAM,large_airport,Amsterdam Airport Schiphol,52.308601,4.76389,NL,Amsterdam,12467.0,1,1
EHBK,medium_airport,Maastricht Aachen Airport,50.911701,5.77014,NL,Maastricht,9022.0,0,0
EHEH,large_airport,Eindhoven Airport,51.4500999451,5.37452983856,NL,Eindhoven,9843.0,0,1
EHGG,medium_airport,Groningen Airport Eelde,53.119701,6.57944,NL,Groningen,8202.0,0,0
EHGR,medium_airport,Gilze Rijen Air Base,51.567402,4.93183,NL,Rijen,9081.0,0,0
EHKD,medium_airport,De Kooy Airfield / Den Helder Naval Air Station,52.923401,4.78062,NL,Den Helder,4183.0,0,0
EHLE,medium_airport,Lelystad Airport,52.453188,5.514622,NL,Lelystad,8858.0,0,0
EHLW,medium_airport,Leeuwarden Air Base,53.22859954833984,5.760560035705566,NL,Leeuwarden,8045.0,0,0
EHRD,medium_airport,Rotterdam The Hague Airport,51.956902,4.43722,NL,Rotterdam,7218.0,0,0
EHTW,medium_airport,Twente Airport,52.275833,6.889167,NL,Enschede,9801.0,0,0
EHVK,medium_airport,Volkel Air Base,51.657222,5.707778,NL,Uden,9931.0,0,0
EHWO,medium_airport,Woensdrecht Air Base,51.4491,4.34203,NL,Hoogerheide,8015.0,0,0
EICK,medium_airport,Cork Airport,51.841301,-8.49111,IE,Cork,6998.0,0,0
EICM,medium_airport,Galway Airport,53.300201,-8.94159,IE,Galway,4003.0,0,0
EIDL,medium_airport,Donegal Airport,55.0442008972168,-8.340999603271484,IE,Donegal,4908.0,0,0
EIDW,large_airport,Dublin Airport,53.428713,-6.262121,IE,Dublin,10203.0,1,1
EIKN,medium_airport,Ireland West Knock Airport,53.910301,-8.81849,IE,Charlestown,7546.0,0,0
EIKY,medium_airport,Kerry Airport,52.180901,-9.52378,IE,Farranfore,6562.0,0,0
EIME,medium_airport,Casement Air Base,53.301700592,-6.451330184940001,IE,Baldonnel,6001.0,0,0
EINN,large_airport,Shannon Airport,52.702,-8.92482,IE,Shannon,10495.0,1,1
EISG,medium_airport,Sligo Airport,54.280200958252,-8.5992097854614,IE,Sligo,3517.0,0,0
EIWF,medium_airport,Waterford Airport,52.187199,-7.08696,IE,Waterford,4701.0,0,0
EKAH,medium_airport,Aarhus Airport,56.303331,10.618286,DK,Aarhus,9111.0,0,0
EKBI,large_airport,Billund Airport,55.740335,9.157019,DK,Billund,10172.0,1,1
EKCH,large_airport,Copenhagen Kastrup Airport,55.617900848389,12.656000137329,DK,Copenhagen,11811.0,1,1
EKEB,medium_airport,Esbjerg Airport,55.525902,8.5534,DK,Esbjerg,8527.0,0,0
EKKA,medium_airport,Midtjyllands Airport / Air Base Karup,56.297139,9.104311,DK,Karup,9816.0,0,0
EKMB,medium_airport,Lolland Falster Maribo Airport,54.699447,11.438163,DK,Rødby,3937.0,0,0
EKOD,medium_airport,Odense Hans Christian Andersen Airport,55.475307,10.327206,DK,Odense,6053.0,0,0
EKRK,medium_airport,Copenhagen Roskilde Airport,55.585602,12.1314,DK,Roskilde,5709.0,0,0
EKRN,medium_airport,Bornholm Airport,55.063301,14.7596,DK,Rønne,6568.0,0,0
EKSB,medium_airport,Sønderborg Airport,54.96440124511719,9.791729927062988,DK,Sønderborg,5895.0,0,0
EKSN,medium_airport,Sindal Airport,57.503502,10.2294,DK,Sindal,3934.0,0,0
EKSP,medium_airport,Skrydstrup Air Base,55.221048,9.26702,DK,Vojens,9863.0,0,0
EKSV,medium_airport,Skive Airport,56.550201,9.17298,DK,Skive,3933.0,0,0
EKTS,medium_airport,Thisted Airport,57.068802,8.70522,DK,Thisted,5249.0,0,0
EKVD,medium_airport,Kolding Vamdrup Airfield,55.436298,9.33092,DK,Kolding / Vamdrup,3301.0,0,0
EKVG,medium_airport,Vágar Airport,62.063256,-7.275782,FO,Vágar,5902.0,0,0
EKVJ,medium_airport,Stauning Vestjylland  Airport,55.990101,8.35391,DK,Skjern,4757.0,0,0
EKYT,medium_airport,Aalborg Airport,57.094763,9.84993,DK,Aalborg,8707.0,0,0
ELLX,large_airport,Luxembourg-Findel International Airport,49.6233333,6.2044444,LU,Luxembourg,13130.0,1,1
ENAL,medium_airport,"Ålesund Airport, Vigra",62.5625,6.1197,NO,Ålesund,7592.0,0,0
ENAN,medium_airport,"Andøya Airport, Andenes",69.292503,16.144199,NO,Andenes,8097.0,0,0
ENAT,medium_airport,Alta Airport,69.976097,23.3717,NO,Alta,7165.0,0,0
ENBN,medium_airport,"Brønnøysund Airport, Brønnøy",65.461098,12.2175,NO,Brønnøy,3937.0,0,0
ENBO,medium_airport,Bodø Airport,67.269203,14.3653,NO,Bodø,9167.0,0,0
ENBR,large_airport,"Bergen Airport, Flesland",60.2934,5.21814,NO,Bergen,9810.0,0,1
ENBS,medium_airport,Båtsfjord Airport,70.60025,29.692612,NO,Båtsfjord,3281.0,0,0
ENBV,medium_airport,Berlevåg Airport,70.871517,29.034097,NO,Berlevåg,3372.0,0,0
ENCN,medium_airport,"Kristiansand Airport, Kjevik",58.204201,8.08537,NO,Kjevik,6660.0,0,0
ENDU,medium_airport,Bardufoss Airport,69.055801,18.5404,NO,Målselv,8015.0,0,0
ENEV,medium_airport,"Harstad/Narvik Airport, Evenes",68.491302490234,16.678100585938,NO,Evenes,9236.0,0,0
ENFL,medium_airport,Florø Airport,61.583599090576,5.0247201919556,NO,Florø,4144.0,0,0
ENGM,large_airport,"Oslo Airport, Gardermoen",60.193901,11.1004,NO,Oslo (Gardermoen),11811.0,1,1
ENHD,medium_airport,"Haugesund Airport, Karmøy",59.345299,5.20836,NO,Karmøy,6957.0,0,0
ENHF,medium_airport,Hammerfest Airport,70.679703,23.6686,NO,Hammerfest,3061.0,0,0
ENHV,medium_airport,"Honningsvåg Airport, Valan",71.009697,25.983601,NO,Honningsvåg,2625.0,0,0
ENKB,medium_airport,"Kristiansund Airport, Kvernberget",63.111801,7.82452,NO,Kvernberget,7841.0,0,0
ENKR,medium_airport,"Kirkenes Airport, Høybuktmoen",69.7258,29.8913,NO,Kirkenes,6939.0,0,0
ENLK,medium_airport,Leknes Airport,68.152496337891,13.609399795532,NO,Leknes,2881.0,0,0
ENMH,medium_airport,Mehamn Airport,71.029701,27.8267,NO,Mehamn,2887.0,0,0
ENML,medium_airport,"Molde Airport, Årø",62.744701,7.2625,NO,Årø,6922.0,0,0
ENMS,medium_airport,"Mosjøen Airport, Kjærstad",65.783997,13.2149,NO,Mosjøen,3015.0,0,0
ENNA,medium_airport,"Lakselv Airport, Banak",70.068802,24.973499,NO,Lakselv,9147.0,0,0
ENNO,medium_airport,Notodden Airport,59.565071,9.213152,NO,Notodden,5745.0,0,0
ENOL,medium_airport,Ørland Airport,63.69889831542969,9.604000091552734,NO,Ørland,10755.0,0,0
ENOV,medium_airport,"Ørsta-Volda Airport, Hovden",62.180000305176,6.0741000175476,NO,Ørsta,3510.0,0,0
ENRA,medium_airport,"Mo i Rana Airport, Røssvoll",66.363899230957,14.301400184631,NO,Mo i Rana,2759.0,0,0
ENRM,medium_airport,"Rørvik Airport, Ryum",64.838302612305,11.14610004425,NO,Rørvik,2887.0,0,0
ENRO,medium_airport,Røros Airport,62.578399658203,11.342300415039,NO,Røros,5643.0,0,0
ENRY,medium_airport,"Moss Airport, Rygge",59.378817,10.785439,NO,Oslo,8012.0,0,0
ENSB,medium_airport,"Svalbard Airport, Longyear",78.246101379395,15.465600013733,NO,Longyearbyen,7608.0,0,0
ENSH,medium_airport,"Svolvær Airport, Helle",68.243301,14.6692,NO,Svolvær,3104.0,0,0
ENSK,medium_airport,"Stokmarknes Airport, Skagen",68.578827,15.033417,NO,Hadsel,3031.0,0,0
ENSN,medium_airport,Skien Airport,59.185001,9.56694,NO,Geiteryggen,4596.0,0,0
ENSO,medium_airport,"Stord Airport, Sørstokken",59.791901,5.34085,NO,Leirvik,3937.0,0,0
ENSR,medium_airport,Sørkjosen Airport,69.786797,20.9594,NO,Sørkjosen,3015.0,0,0
ENSS,medium_airport,"Vardø Airport, Svartnes",70.3554,31.044901,NO,Vardø,3707.0,0,0
ENST,medium_airport,"Sandnessjøen Airport, Stokka",65.956802,12.4689,NO,Alstahaug,4619.0,0,0
ENTC,large_airport,"Tromsø Airport, Langnes",69.683296,18.9189,NO,Tromsø,7848.0,0,1
ENTO,medium_airport,"Sandefjord Airport, Torp",59.186699,10.2586,NO,Torp,9675.0,0,0
ENVA,large_airport,"Trondheim Airport, Værnes",63.457802,10.924,NO,Trondheim,9052.0,0,1
ENVD,medium_airport,Vadsø Airport,70.0653,29.8447,NO,Vadsø,3278.0,0,0
ENZV,large_airport,"Stavanger Airport, Sola",58.876701,5.63778,NO,Stavanger,9369.0,0,1
EPBY,medium_airport,Bydgoszcz Ignacy Jan Paderewski Airport,53.096802,17.977699,PL,Bydgoszcz,8202.0,0,0
EPCE,medium_airport,Cewice Naval Air Base,54.417664,17.773512,PL,Siemirowice,8214.0,0,0
EPDE,medium_airport,Deblin Military Air Base,51.551399231,21.8936004639,PL,Dęblin,8202.0,0,0
EPGD,large_airport,Gdańsk Lech Wałęsa Airport,54.377602,18.4662,PL,Gdańsk,9186.0,0,1
EPIR,medium_airport,Inowroclaw Military Air Base,52.8293991089,18.3306007385,PL,,1312.0,0,0
EPKK,large_airport,Kraków John Paul II International Airport,50.077702,19.7848,PL,Balice,8366.0,0,1
EPKS,medium_airport,Krzesiny Military Air Base,52.331699,16.9664,PL,Poznań,8202.0,0,0
EPKT,medium_airport,Katowice Wojciech Korfanty International Airport,50.476015,19.080705,PL,Katowice,10499.0,0,0
EPLB,medium_airport,Lublin Airport,51.240157,22.713461,PL,Lublin,8268.0,0,0
EPLK,medium_airport,Łask Air Base,51.551701,19.1791,PL,Łask,9843.0,0,0
EPLL,medium_airport,Łódź Władysław Reymont Airport,51.721901,19.3981,PL,Łódź,8202.0,0,0
EPLY,medium_airport,Leźnica Wielka Air Base,52.004945,19.143792,PL,Leźnica Wielka,8202.0,0,0
EPMB,medium_airport,Malbork Królewo Air Base,54.026598,19.135718,PL,Królewo,8202.0,0,0
EPMI,medium_airport,Miroslawiec Military Air Base,53.3951,16.0828,PL,Mirosławiec,8202.0,0,0
EPMM,medium_airport,Minsk Mazowiecki Military Air Base,52.1954994202,21.6558990479,PL,,8245.0,0,0
EPMO,medium_airport,Modlin Airport,52.451099,20.6518,PL,Nowy Dwór Mazowiecki,8202.0,0,0
EPPO,medium_airport,Poznań-Ławica Airport,52.421598,16.823359,PL,Poznań,8215.0,0,0
EPPW,medium_airport,Powidz Military Air Base,52.380087,17.853155,PL,Powidz,11565.0,0,0
EPRA,medium_airport,Warsaw Radom Airport,51.38937,21.214742,PL,Radom,8202.0,0,0
EPRZ,medium_airport,Rzeszów-Jasionka Airport,50.109791,22.024155,PL,Jasionka,10498.0,0,0
EPSC,medium_airport,Solidarity Szczecin–Goleniów Airport,53.584702,14.9022,PL,Glewice,8202.0,0,0
EPSN,medium_airport,Swidwin Military Air Base,53.790599823,15.8262996674,PL,,8200.0,0,0
EPSY,medium_airport,Olsztyn-Mazury Airport,53.481899,20.9377,PL,Szymany,8202.0,0,0
EPTM,medium_airport,Tomaszów Mazowiecki Military Air Base,51.5844,20.097799,PL,Nowy Glinnik,6560.0,0,0
EPWA,large_airport,Warsaw Chopin Airport,52.165699,20.9671,PL,Warsaw,12106.0,1,1
EPWR,medium_airport,Copernicus Wrocław Airport,51.103719,16.882096,PL,Wrocław,8212.0,0,0
EPZG,medium_airport,Zielona Góra-Babimost Airport,52.1385,15.7986,PL,Nowe Kramsko,8202.0,0,0
ESCF,medium_airport,Malmen Air Base,58.397666,15.522422,SE,Linköping,7265.0,0,0
ESDF,medium_airport,Ronneby Airport,56.266701,15.265,SE,Ronneby,7648.0,0,0
ESFR,medium_airport,Råda Air Base,58.4981,13.0532,SE,Råda,6517.0,0,0
ESGG,large_airport,Göteborg Landvetter Airport,57.6628,12.2798,SE,Göteborg,10823.0,1,1
ESGJ,medium_airport,Jönköping Airport,57.757598876953125,14.068699836730955,SE,Jönköping,7228.0,0,0
ESGP,medium_airport,Säve Airport,57.7747,11.8704,SE,Göteborg,3560.0,0,0
ESGR,medium_airport,Skövde Airport,58.456402,13.9727,SE,Skövde,5696.0,0,0
ESGT,medium_airport,Trollhättan-Vänersborg Airport,58.31809997558594,12.345000267028809,SE,Trollhättan,5610.0,0,0
ESIB,medium_airport,Såtenäs Air Base,58.426399,12.7144,SE,Såtenäs,7428.0,0,0
ESKK,medium_airport,Karlskoga Airport,59.345901,14.4959,SE,Karlskoga,4919.0,0,0
ESKM,medium_airport,Mora Airport,60.957901,14.5114,SE,Mora,5951.0,0,0
ESKN,medium_airport,Stockholm Skavsta Airport,58.788601,16.912201,SE,Nyköping,9442.0,0,0
ESKS,medium_airport,Scandinavian Mountains Airport,61.158393,12.842503,SE,Malung-Sälen,8202.0,0,0
ESMK,medium_airport,Kristianstad Airport,55.9217,14.0855,SE,Kristianstad,7267.0,0,0
ESMQ,medium_airport,Kalmar Airport,56.685501,16.2876,SE,Kalmar,6726.0,0,0
ESMS,medium_airport,Malmö Sturup Airport,55.535564,13.376327,SE,Malmö,9186.0,0,0
ESMT,medium_airport,Halmstad Airport,56.69110107421875,12.820199966430664,SE,Halmstad,7419.0,0,0
ESMX,medium_airport,Växjö Kronoberg Airport,56.92910003662109,14.727999687194824,SE,Växjö,6900.0,0,0
ESNG,medium_airport,Gällivare Airport,67.13240051269531,20.814599990844727,SE,Gällivare,5623.0,0,0
ESNK,medium_airport,Kramfors-Sollefteå Höga Kusten Airport,63.048599,17.7689,SE,Nyland,6565.0,0,0
ESNL,medium_airport,Lycksele Airport,64.548302,18.7162,SE,Lycksele,6564.0,0,0
ESNN,medium_airport,Sundsvall-Härnösand Airport,62.528099060058594,17.443899154663086,SE,Sundsvall/ Härnösand,6857.0,0,0
ESNO,medium_airport,Örnsköldsvik Airport,63.40829849243164,18.989999771118164,SE,Örnsköldsvik,6607.0,0,0
ESNQ,medium_airport,Kiruna Airport,67.821998596191,20.336799621582,SE,Kiruna,8209.0,0,0
ESNS,medium_airport,Skellefteå Airport,64.62480163574219,21.07690048217773,SE,Skellefteå,8268.0,0,0
ESNU,medium_airport,Umeå Airport,63.791801452637,20.282800674438,SE,Umeå,7551.0,0,0
ESNV,medium_airport,Vilhelmina South Lapland Airport,64.579102,16.833599,SE,Vilhelmina,4928.0,0,0
ESNX,medium_airport,Arvidsjaur Airport,65.59030151367188,19.28190040588379,SE,Arvidsjaur,8201.0,0,0
ESNY,medium_airport,Söderhamn Airport,61.261501,17.0991,SE,Söderhamn,8281.0,0,0
ESNZ,medium_airport,Åre Östersund Airport,63.194135,14.500322,SE,Östersund,8202.0,0,0
ESOE,medium_airport,Örebro Airport,59.22370147705078,15.038000106811523,SE,Örebro,10728.0,0,0
ESOK,medium_airport,Karlstad Airport,59.444698,13.3374,SE,Karlstad,8255.0,0,0
ESOW,medium_airport,Stockholm Västerås Airport,59.58940124511719,16.63360023498535,SE,Stockholm / Västerås,8468.0,0,0
ESPA,medium_airport,Luleå Airport,65.5438,22.122,SE,Luleå,10990.0,0,0
ESSA,large_airport,Stockholm-Arlanda Airport,59.64849,17.928829,SE,Stockholm,10830.0,1,1
ESSB,medium_airport,Stockholm-Bromma Airport,59.354400634765625,17.941699981689453,SE,Stockholm,5472.0,0,0
ESSD,medium_airport,Dala Airport,60.422001,15.5152,SE,Borlange,7579.0,0,0
ESSK,medium_airport,Gävle Sandviken Airport,60.5933,16.951401,SE,Gävle / Sandviken,6562.0,0,0
ESSL,medium_airport,Linköping City Airport,58.4062004089,15.6805000305,SE,Linköping,7004.0,0,0
ESSP,medium_airport,Norrköping Airport,58.58629989624024,16.250600814819336,SE,Norrköping,7228.0,0,0
ESST,medium_airport,Torsby Airport,60.1576,12.9913,SE,Torsby,5219.0,0,0
ESSU,medium_airport,Eskilstuna Airport,59.351101,16.708401,SE,Eskilstuna,6187.0,0,0
ESSV,medium_airport,Visby Airport,57.662799835205,18.346200942993,SE,Visby,6562.0,0,0
ESTA,medium_airport,Ängelholm-Helsingborg Airport,56.29610061645508,12.847100257873535,SE,Ängelholm,6381.0,0,0
ESTL,medium_airport,Ljungbyhed Airfield,56.082802,13.2125,SE,Ljungbyhed,7449.0,0,0
ESUD,medium_airport,Storuman Airport,64.960899,17.6966,SE,Storuman,7490.0,0,0
ETAD,medium_airport,Spangdahlem Air Base,49.976507,6.698413,DE,Trier,10007.0,0,0
ETAR,medium_airport,Ramstein Air Base,49.436901,7.60028,DE,Ramstein-Miesenbach,10498.0,0,0
ETHB,medium_airport,Bückeburg Air Base,52.2785,9.08217,DE,Bückeburg,6010.0,0,0
ETHC,medium_airport,Celle Army Airfield,52.591202,10.0221,DE,Celle,6007.0,0,0
ETHF,medium_airport,Fritzlar Army Airfield,51.1146,9.286,DE,Fritzlar,3413.0,0,0
ETHL,medium_airport,Laupheim Air Base,48.220299,9.91002,DE,Laupheim,5400.0,0,0
ETHN,medium_airport,Niederstetten Army Air Base,49.39162,9.956747,DE,Niederstetten,3320.0,0,0
ETHS,medium_airport,Faßberg Air Base,52.919399,10.185827,DE,Faßberg,8005.0,0,0
ETIC,medium_airport,Grafenwöhr Army Air Field,49.6987,11.9402,DE,Grafenwöhr,3300.0,0,0
ETIH,medium_airport,Hohenfels Army Airfield,49.216541,11.836064,DE,Hohenfels,2187.0,0,0
ETMN,medium_airport,Sea-Airport Cuxhaven/Nordholz / Nordholz Naval Airbase,53.767689,8.659201,DE,Wurster Nordseeküste,8002.0,0,0
ETND,medium_airport,Diepholz Air Base,52.585556,8.342222,DE,Diepholz,4209.0,0,0
ETNG,medium_airport,Geilenkirchen Air Base,50.9608,6.04242,DE,Geilenkirchen,10009.0,0,0
ETNH,medium_airport,Hohn Air Base,54.312199,9.53817,DE,Hohn,8005.0,0,0
ETNL,medium_airport,Rostock-Laage Airport,53.918201,12.2783,DE,Laage,8202.0,0,0
ETNN,medium_airport,Nörvenich Air Base,50.8312,6.65817,DE,Nörvenich,8003.0,0,0
ETNS,medium_airport,Schleswig Air Base,54.459301,9.51633,DE,Jagel,8003.0,0,0
ETNT,medium_airport,Wittmundhafen Air Base,53.547798,7.66733,DE,Wittmund,8005.0,0,0
ETNW,medium_airport,Wunstorf Air Base,52.457298,9.42717,DE,,8199.0,0,0
ETOU,medium_airport,Wiesbaden Army Airfield,50.049800872802734,8.325400352478027,DE,Wiesbaden,7065.0,0,0
ETSB,medium_airport,Büchel Air Base,50.173801,7.06333,DE,Alflen,8225.0,0,0
ETSH,medium_airport,Holzdorf Air Base,51.767799,13.1677,DE,Holzdorf,7936.0,0,0
ETSI,medium_airport,Ingolstadt Manching Airport,48.7156982421875,11.534000396728516,DE,Manching,9646.0,0,0
ETSL,medium_airport,Lechfeld Air Base,48.185504,10.8612,DE,Graben,8012.0,0,0
ETSN,medium_airport,Neuburg Air Base,48.710999,11.2115,DE,Neuburg an der Donau,8005.0,0,0
EVKA,medium_airport,Jēkabpils Air Base,56.534698,25.8925,LV,Jēkabpils,2361.0,0,0
EVLA,medium_airport,Liepāja International Airport,56.517502,21.096901,LV,Liepāja,6568.0,0,0
EVRA,large_airport,Riga International Airport,56.923599,23.9711,LV,Riga,10499.0,1,1
EVTA,medium_airport,Jūrmala Airport,56.9422,23.2239,LV,Tukums,8197.0,0,0
EYKA,medium_airport,Kaunas International Airport,54.96390151977539,24.084800720214844,LT,Kaunas,10663.0,0,0
EYKD,medium_airport,Kėdainiai Air Base,55.31169891357422,23.95639991760254,LT,Kėdainiai,6562.0,0,0
EYPA,medium_airport,Palanga International Airport,55.97320175170898,21.093900680541992,LT,Palanga,7480.0,0,0
EYPP,medium_airport,Panevėžys Air Base,55.729400634765625,24.46080017089844,LT,Panevėžys,6562.0,0,0
EYSA,medium_airport,Šiauliai International Airport,55.89390182495117,23.395000457763672,LT,Šiauliai,11483.0,0,0
EYSB,medium_airport,Barysiai Airfield,56.070599,23.5581,LT,Šiauliai,3281.0,0,0
EYVI,large_airport,Vilnius International Airport,54.634102,25.285801,LT,Vilnius,8251.0,0,1
FAAB,medium_airport,Alexander Bay Airport,-28.575001,16.5333,ZA,Alexander Bay,6063.0,0,0
FAAG,medium_airport,Aggeneys Airport,-29.281799,18.8139,ZA,Aggeneys,6824.0,0,0
FABE,medium_airport,Bisho Airport,-32.897099,27.2791,ZA,Bisho,8202.0,0,0
FABL,medium_airport,Bram Fischer International Airport,-29.092699,26.302401,ZA,Bloemfontain,8396.0,0,0
FABR,medium_airport,Barberton Airport,-25.717147,30.974974,ZA,Umjindi (Barberton),3300.0,0,0
FACT,large_airport,Cape Town International Airport,-33.9648017883,18.6016998291,ZA,Cape Town,10502.0,1,1
FAEL,medium_airport,King Phalo Airport,-33.035599,27.825899,ZA,East London,6362.0,0,0
FAEO,medium_airport,Ermelo Airport,-26.4956,29.979799,ZA,Ermelo,5085.0,0,0
FAFB,medium_airport,Ficksburg Sentraoes Airport,-28.82309913635254,27.908899307250977,ZA,Ficksburg,4593.0,0,0
FAGC,medium_airport,Grand Central Airport,-25.986299514799995,28.1401004791,ZA,Midrand,6004.0,0,0
FAGG,medium_airport,George Airport,-34.0056,22.378902,ZA,George,6562.0,0,0
FAGM,medium_airport,Rand Airport,-26.2425,28.151199,ZA,Johannesburg,5617.0,0,0
FAHR,medium_airport,Harrismith Airport,-28.2351,29.106199,ZA,Harrismith,3937.0,0,0
FAKD,medium_airport,P C Pelser Airport,-26.871099,26.718,ZA,Klerksdorp,4921.0,0,0
FAKM,medium_airport,Kimberley Airport,-28.802799224900003,24.7651996613,ZA,Kimberley,9843.0,0,0
FAKN,medium_airport,Kruger Mpumalanga International Airport,-25.3831996918,31.1056003571,ZA,Mpumalanga,10171.0,0,0
FAKU,medium_airport,Johan Pienaar Airport,-27.45669937133789,23.4113998413086,ZA,Kuruman,5578.0,0,0
FAKZ,medium_airport,Kleinsee Airport,-29.6884002686,17.093999862700002,ZA,Kleinsee,4921.0,0,0
FALA,medium_airport,Lanseria International Airport,-25.938499,27.9261,ZA,Johannesburg,10000.0,0,0
FALC,medium_airport,Lime Acres Finsch Mine Airport,-28.36009979248047,23.43910026550293,ZA,Lime Acres,5249.0,0,0
FALE,large_airport,King Shaka International Airport,-29.6144444444,31.1197222222,ZA,Durban,12139.0,1,1
FALW,medium_airport,Langebaanweg Airport,-32.9688987732,18.1602993011,ZA,Langebaanweg,7689.0,0,0
FALY,medium_airport,Ladysmith Airport,-28.5816993713,29.7497005463,ZA,Ladysmith,3937.0,0,0
FAMD,medium_airport,Malamala Airport,-24.816866,31.544085,ZA,Malamala,4145.0,0,0
FAMG,medium_airport,Margate Airport,-30.8574008942,30.343000412,ZA,Margate,4495.0,0,0
FAMM,medium_airport,Mmabatho International Airport,-25.798400878900004,25.5480003357,ZA,Mafeking,15157.0,0,0
FAMS,medium_airport,Morningside Farm Airport,-25.7045001984,26.9090003967,ZA,Silveroaks,5046.0,0,0
FAMU,medium_airport,Mkuze Airport,-27.626100540161133,32.0443000793457,ZA,Mkuze,6059.0,0,0
FANC,medium_airport,Newcastle Airport,-27.7705993652,29.9769001007,ZA,Newcastle,4921.0,0,0
FAOH,medium_airport,Oudtshoorn Airport,-33.6069984436,22.188999176,ZA,Oudtshoorn,5577.0,0,0
FAOR,large_airport,O.R. Tambo International Airport,-26.1392,28.246,ZA,Johannesburg,14495.0,1,1
FAPE,medium_airport,Chief Dawid Stuurman International Airport,-33.984901,25.6173,ZA,Gqeberha (Port Elizabeth),7087.0,0,0
FAPG,medium_airport,Plettenberg Bay Airport,-34.08816,23.328723,ZA,Plettenberg Bay,4003.0,0,0
FAPH,medium_airport,Hendrik Van Eck Airport,-23.9372005463,31.1553993225,ZA,Phalaborwa,4491.0,0,0
FAPI,medium_airport,Pietersburg Municipal Airport,-23.9261,29.4844,ZA,Polokwane,7218.0,0,0
FAPJ,medium_airport,Port St Johns Airport,-31.60612,29.52175,ZA,Port St Johns,3610.0,0,0
FAPM,medium_airport,Pietermaritzburg Airport,-29.6490001678,30.3987007141,ZA,Pietermaritzburg,5043.0,0,0
FAPP,medium_airport,Polokwane International Airport,-23.845269,29.458615,ZA,Polokwane,8400.0,0,0
FAPS,medium_airport,Potchefstroom Airport,-26.670999527,27.0818996429,ZA,Potchefstroom,4885.0,0,0
FAQT,medium_airport,Queenstown Airport,-31.92020034790039,26.882200241088867,ZA,Queenstown,3937.0,0,0
FARB,medium_airport,Richards Bay Airport,-28.740999221800003,32.0920982361,ZA,Richards Bay,4265.0,0,0
FARG,medium_airport,Rustenburg Airport,-25.6443,27.271099,ZA,Rustenburg,4019.0,0,0
FARS,medium_airport,Robertson Airport,-33.812199,19.9028,ZA,Robertson,4921.0,0,0
FASB,medium_airport,Springbok Airport,-29.68930053710937,17.939599990844727,ZA,Springbok,5213.0,0,0
FASC,medium_airport,Secunda Airport,-26.52409935,29.1700992584,ZA,Secunda,3609.0,0,0
FASD,medium_airport,Saldanha/Vredenburg Airport,-32.9641,17.969299,ZA,Saldanha-Vredenburg,4665.0,0,0
FASK,medium_airport,Swartkop Air Force Base,-25.8097,28.1646,ZA,Pretoria,6589.0,0,0
FASS,medium_airport,Sishen Airport,-27.6486,22.9993,ZA,Sishen,5709.0,0,0
FASZ,medium_airport,Skukuza Airport,-24.960899353,31.5886993408,ZA,Skukuza,5085.0,0,0
FATZ,medium_airport,Tzaneen Airport,-23.8244,30.3293,ZA,Tzaneen,4659.0,0,0
FAUL,medium_airport,Prince Mangosuthu Buthelezi Airport,-28.3206005096,31.4165000916,ZA,Ulundi,5381.0,0,0
FAUP,medium_airport,Pierre Van Ryneveld Airport,-28.39909935,21.2602005005,ZA,Upington,16076.0,0,0
FAUT,medium_airport,K. D. Matanzima Airport,-31.5463631849,28.6733551025,ZA,Mthatha,6562.0,0,0
FAVB,medium_airport,Vryburg Airport,-26.9824008942,24.7287998199,ZA,Vyrburg,3937.0,0,0
FAVG,medium_airport,Virginia Airport,-29.770599,31.058399,ZA,Durban,3035.0,0,0
FAVR,medium_airport,Vredendal Airport,-31.641000747680664,18.5447998046875,ZA,Vredendal,4265.0,0,0
FAVV,medium_airport,Vereeniging Airport,-26.566401,27.9608,ZA,Vereeniging,5266.0,0,0
FAWB,medium_airport,Wonderboom Airport,-25.6539,28.224199,ZA,Pretoria,5998.0,0,0
FAWK,medium_airport,Waterkloof Air Force Base,-25.8299999237,28.2224998474,ZA,Pretoria,11001.0,0,0
FAYP,medium_airport,Ysterplaat Air Force Base,-33.9002,18.498301,ZA,Cape Town,5200.0,0,0
FBFT,medium_airport,P G Matante Intl,-21.15914,27.468545,BW,Francistown,9843.0,0,0
FBJW,medium_airport,Jwaneng Airport,-24.602301,24.691,BW,Jwaneng,5495.0,0,0
FBKE,medium_airport,Kasane Airport,-17.832899,25.162399,BW,Kasane,6562.0,0,0
FBMN,medium_airport,Maun Airport,-19.970491,23.431409,BW,Maun,6562.0,0,0
FBSK,large_airport,Sir Seretse Khama International Airport,-24.555201,25.9182,BW,Gaborone,13123.0,1,1
FBSN,medium_airport,Sua Pan Airport,-20.5534,26.115801,BW,Sowa,5381.0,0,0
FBSP,medium_airport,Selebi Phikwe Airport,-22.0583,27.8288,BW,Selebi Phikwe,5840.0,0,0
FCBB,medium_airport,Maya-Maya Airport,-4.251699924468994,15.253000259399414,CG,Brazzaville,10827.0,0,0
FCOD,medium_airport,Oyo Ollombo Airport,-1.226666,15.91,CG,Oyo,10827.0,0,0
FCOO,medium_airport,Owando Airport,-0.524566,15.93782,CG,Owando,5905.0,0,0
FCOU,medium_airport,Ouesso Airport,1.61599,16.037901,CG,,6726.0,0,0
FCPL,medium_airport,Ngot Nzoungou Airport,-4.20635,12.6599,CG,Dolisie,6725.0,0,0
FCPP,medium_airport,Antonio Agostinho-Neto International Airport,-4.81603,11.8866,CG,Pointe Noire,8530.0,0,0
FDMS,medium_airport,Matsapha Airport,-26.528999,31.307501,SZ,Manzini,8530.0,0,0
FDSK,large_airport,King Mswati III International Airport,-26.358611,31.716944,SZ,Mpaka,11811.0,1,1
FEFF,medium_airport,Bangui M'Poko International Airport,4.39847993850708,18.51880073547364,CF,Bangui,8530.0,0,0
FEFT,medium_airport,Berbérati Airport,4.221580028533936,15.786399841308594,CF,Berbérati,5446.0,0,0
FGBT,medium_airport,Bata Airport,1.90547,9.80568,GQ,Bata,10860.0,0,0
FGSL,medium_airport,Malabo Airport,3.755270004272461,8.708720207214355,GQ,Malabo,9647.0,0,0
FHAW,medium_airport,RAF Ascension Island,-7.9696,-14.3937,SH,Cat Hill,10019.0,0,0
FIMP,large_airport,Sir Seewoosagur Ramgoolam International Airport,-20.430201,57.683601,MU,Plaine Magnien,11056.0,1,1
FIMR,medium_airport,Sir Charles Gaetan Duval Airport,-19.7577,63.361,MU,Port Mathurin,4223.0,0,0
FJDG,medium_airport,Diego Garcia Naval Support Facility,-7.31327,72.411102,IO,Diego Garcia,12003.0,0,0
FKKC,medium_airport,Tiko Airport,4.08919000626,9.3605298996,CM,Tiko,4512.0,0,0
FKKD,medium_airport,Douala International Airport,4.0060801506,9.71947956085,CM,Douala,9350.0,0,0
FKKL,medium_airport,Salak Airport,10.45139980316162,14.257399559020996,CM,Maroua,6890.0,0,0
FKKM,medium_airport,Foumban Nkounja Airport,5.63692,10.7508,CM,Foumban,6889.0,0,0
FKKN,medium_airport,N'Gaoundéré Airport,7.357009887695312,13.559200286865234,CM,N'Gaoundéré,8858.0,0,0
FKKR,medium_airport,Garoua International Airport,9.33588981628418,13.370100021362305,CM,Garoua,11032.0,0,0
FKKU,medium_airport,Bafoussam Airport,5.536920070650001,10.3545999527,CM,Bafoussam,8203.0,0,0
FKKV,medium_airport,Bamenda Airport,6.03924,10.1226,CM,Bamenda,8202.0,0,0
FKKY,medium_airport,Yaoundé Airport,3.83604,11.5235,CM,Yaoundé,6519.0,0,0
FKYS,medium_airport,Yaoundé Nsimalen International Airport,3.72256,11.5533,CM,Yaoundé,11155.0,0,0
FLKE,medium_airport,Kasompe Airport,-12.5728,27.8939,ZM,Chingola,4698.0,0,0
FLLC,medium_airport,Lusaka City Airport,-15.4138,28.3307,ZM,Lusaka,6594.0,0,0
FLLI,medium_airport,Harry Mwanga Nkumbula International Airport,-17.8218,25.822701,ZM,Livingstone,7520.0,0,0
FLLS,large_airport,Kenneth Kaunda International Airport,-15.330833,28.452722,ZM,Lusaka,12998.0,1,1
FLMF,medium_airport,Mfuwe Airport,-13.258899688720703,31.936599731445312,ZM,Mfuwe,7218.0,0,0
FLMG,medium_airport,Mongu Airport,-15.2545,23.1623,ZM,Mongu,4800.0,0,0
FLND,medium_airport,Peter Zuze Air Force Base,-12.997222,28.663889,ZM,Ndola,8250.0,0,0
FLSK,medium_airport,Simon Mwansa Kapwepwe International Airport,-12.961667,28.516667,ZM,Ndola,11483.0,0,0
FLSO,medium_airport,Southdowns Airport,-12.9005,28.1499,ZM,Kitwe,6562.0,0,0
FMCH,medium_airport,Prince Said Ibrahim International Airport,-11.5337,43.2719,KM,Moroni,9514.0,0,0
FMCI,medium_airport,Mohéli Bandar Es Eslam Airport,-12.2981,43.766399,KM,Fomboni,4265.0,0,0
FMCV,medium_airport,Ouani Airport,-12.131047,44.430044,KM,Ouani,4429.0,0,0
FMCZ,medium_airport,Dzaoudzi Pamandzi International Airport,-12.809319,45.281815,YT,Dzaoudzi,6330.0,0,0
FMEE,large_airport,Roland Garros Airport,-20.890087,55.518894,RE,Sainte-Marie,10499.0,1,1
FMEP,medium_airport,Pierrefonds Airport,-21.319362,55.422506,RE,Saint-Pierre,7000.0,0,0
FMMI,large_airport,Ivato Airport,-18.7969,47.478802,MG,Antananarivo,10171.0,1,1
FMMN,medium_airport,Miandrivazo Airport,-19.562799,45.450802,MG,Miandrivazo,3609.0,0,0
FMMS,medium_airport,Sainte Marie Airport,-17.093901,49.8158,MG,Vohilava,3451.0,0,0
FMMT,medium_airport,Toamasina Ambalamanasy Airport,-18.109501,49.392502,MG,Toamasina,7218.0,0,0
FMMV,medium_airport,Morondava Airport,-20.2847,44.3176,MG,Morondava,4921.0,0,0
FMNA,medium_airport,Arrachart Airport,-12.3494,49.291698,MG,Antisiranana,4921.0,0,0
FMNC,medium_airport,Mananara Nord Airport,-16.1639,49.7738,MG,Mananara Nord,4101.0,0,0
FMND,medium_airport,Andapa Airport,-14.651700019836426,49.620601654052734,MG,,4153.0,0,0
FMNH,medium_airport,Antsirabe Airport,-14.9994,50.320202,MG,Antsirabe,3914.0,0,0
FMNL,medium_airport,Analalava Airport,-14.629514,47.763555,MG,Analalava,3937.0,0,0
FMNM,medium_airport,Amborovy Airport,-15.666842,46.351233,MG,Mahajanga,7218.0,0,0
FMNN,medium_airport,Fascene Airport,-13.3121,48.3148,MG,Nosy Be,7185.0,0,0
FMNQ,medium_airport,Besalampy Airport,-16.74453,44.482484,MG,Besalampy,4046.0,0,0
FMNR,medium_airport,Maroantsetra Airport,-15.437742,49.689081,MG,Maroantsetra,4265.0,0,0
FMNS,medium_airport,Sambava Airport,-14.2786,50.174702,MG,Sambava,4577.0,0,0
FMNV,medium_airport,Vohemar Airport,-13.3758,50.0028,MG,Vohemar,4236.0,0,0
FMNW,medium_airport,Ambalabe Airport,-14.8988,47.9939,MG,Antsohihy,4921.0,0,0
FMSD,medium_airport,Tôlanaro Airport,-25.038099,46.9561,MG,Tôlanaro,5280.0,0,0
FMSF,medium_airport,Fianarantsoa Airport,-21.441601,47.111698,MG,Fianarantsoa,4101.0,0,0
FMSK,medium_airport,Manakara Airport,-22.119699,48.021702,MG,Manakara,3886.0,0,0
FMSM,medium_airport,Mananjary Airport,-21.201799,48.358299,MG,Mananjary,4921.0,0,0
FMSR,medium_airport,Morombe Airport,-21.753837,43.374753,MG,Morombe,4265.0,0,0
FMST,medium_airport,Toliara Airport,-23.3834,43.7285,MG,Toliara,6562.0,0,0
FNBC,medium_airport,Mbanza Congo Airport,-6.269899845123291,14.246999740600586,AO,Mbanza Congo,5905.0,0,0
FNBG,medium_airport,Benguela Airport,-12.609,13.4037,AO,Benguela,5315.0,0,0
FNBJ,medium_airport,Dr. Antonio Agostinho Neto International Airport,-9.050734,13.499078,AO,Luanda (Ícolo e Bengo),13123.0,0,0
FNCA,medium_airport,Cabinda Airport,-5.59699010848999,12.188400268554688,AO,Cabinda,8202.0,0,0
FNCT,medium_airport,Catumbela Airport,-12.4792,13.4869,AO,Catumbela,12139.0,0,0
FNDU,medium_airport,Dundo Airport,-7.400889873504639,20.818500518798828,AO,Chitato,6468.0,0,0
FNGI,medium_airport,Ngjiva Pereira Airport,-17.0435009003,15.683799743700002,AO,Ngiva,10640.0,0,0
FNHU,medium_airport,Albano Machado Airport,-12.8089,15.7605,AO,Huambo,8727.0,0,0
FNKU,medium_airport,Kuito Airport,-12.404600143433,16.947399139404,AO,Kuito,8202.0,0,0
FNLU,large_airport,Quatro de Fevereiro International Airport,-8.85837,13.2312,AO,Luanda,12190.0,1,1
FNMA,medium_airport,Malanje Airport,-9.525090217590332,16.312400817871094,AO,Malanje,7283.0,0,0
FNME,medium_airport,Menongue Airport,-14.657600402832031,17.71980094909668,AO,Menongue,11483.0,0,0
FNMO,medium_airport,Welwitschia Mirabilis International Airport,-15.2612,12.1468,AO,Moçâmedes,8202.0,0,0
FNNG,medium_airport,Negage Airport,-7.754509925842285,15.287699699401855,AO,Negage,7874.0,0,0
FNPA,medium_airport,Porto Amboim Airport,-10.722,13.7655,AO,Port Amboim,3379.0,0,0
FNSA,medium_airport,Saurimo Airport,-9.68907,20.4319,AO,Saurimo,11155.0,0,0
FNSO,medium_airport,Soyo Airport,-6.141089916229248,12.371800422668455,AO,Soyo,5905.0,0,0
FNSU,medium_airport,Sumbe Airport,-11.1679,13.8475,AO,Sumbe,3115.0,0,0
FNUB,medium_airport,Lubango Airport,-14.924699783325195,13.574999809265137,AO,Lubango,9570.0,0,0
FNUE,medium_airport,Luena Airport,-11.7681,19.897699,AO,Luena,7875.0,0,0
FNUG,medium_airport,Uige Airport,-7.60307,15.0278,AO,Uige,6562.0,0,0
FNXA,medium_airport,Xangongo Airport,-16.755399703979492,14.965299606323242,AO,Xangongo,7400.0,0,0
FOGK,medium_airport,Koulamoutou Mabimbi Airport,-1.18461,12.4413,GA,Koulamoutou,5841.0,0,0
FOGM,medium_airport,Mouilla Ville Airport,-1.84514,11.0567,GA,Mouila,5891.0,0,0
FOGO,medium_airport,Oyem Airport,1.5431100130081177,11.58139991760254,GA,Oyem,5906.0,0,0
FOGQ,medium_airport,Okondja Airport,-0.665214,13.6731,GA,Okondja,4921.0,0,0
FOGR,medium_airport,Lambarene Airport,-0.704389,10.2457,GA,Lambarene,7555.0,0,0
FOOB,medium_airport,Bitam Airport,2.07564,11.4932,GA,Bitam,5726.0,0,0
FOOG,medium_airport,Port Gentil Airport,-0.7117390036582947,8.754380226135254,GA,Port Gentil,6234.0,0,0
FOOH,medium_airport,Omboue Hospital Airport,-1.57473,9.26269,GA,Omboue,5285.0,0,0
FOOK,medium_airport,Makokou Airport,0.5792109966278076,12.890899658203123,GA,Makokou,5892.0,0,0
FOOL,medium_airport,Libreville Leon M'ba International Airport,0.458600014448,9.4122800827,GA,Libreville,9844.0,0,0
FOON,medium_airport,M'Vengue El Hadj Omar Bongo Ondimba International Airport,-1.6561599969863892,13.437999725341797,GA,Franceville,10105.0,0,0
FPPR,medium_airport,Principe Airport,1.66294,7.41174,ST,São Tomé & Príncipe,4331.0,0,0
FPST,large_airport,São Tomé International Airport,0.378175,6.71215,ST,São Tomé,7283.0,0,1
FQBR,medium_airport,Beira Airport,-19.7964,34.9076,MZ,Beira,7874.0,0,0
FQCH,medium_airport,Chimoio Airport,-19.15130043029785,33.42900085449219,MZ,Chimoio,7874.0,0,0
FQIN,medium_airport,Inhambane Airport,-23.8764,35.408501,MZ,Inhambane,4921.0,0,0
FQLC,medium_airport,Lichinga Airport,-13.274,35.2663,MZ,Lichinga,8300.0,0,0
FQMA,large_airport,Maputo Airport,-25.920799,32.572601,MZ,Maputo,12008.0,1,1
FQMD,medium_airport,Mueda Airport,-11.6729,39.563099,MZ,Mueda,7714.0,0,0
FQMP,medium_airport,Mocímboa da Praia Airport,-11.3618,40.3549,MZ,Mocímboa da Praia,6562.0,0,0
FQNP,medium_airport,Nampula Airport,-15.105600357055664,39.28179931640625,MZ,Nampula,6562.0,0,0
FQPB,medium_airport,Pemba Airport,-12.993302,40.524867,MZ,Pemba,5905.0,0,0
FQQL,medium_airport,Quelimane Airport,-17.855499267578125,36.86909866333008,MZ,Quelimane,5905.0,0,0
FQTT,medium_airport,Chingozi Airport,-16.104799270629883,33.64020156860352,MZ,Tete,8225.0,0,0
FQVL,medium_airport,Vilankulo Airport,-22.018400192260746,35.31330108642578,MZ,Vilanculo,4823.0,0,0
FSIA,large_airport,Seychelles International Airport,-4.67434,55.521801,SC,Mahe Island,9800.0,0,1
FSPP,medium_airport,Praslin Island Airport,-4.319256,55.691561,SC,Praslin Island,4318.0,0,0
FTTC,medium_airport,Abeche Airport,13.847,20.844299,TD,Abeche,9186.0,0,0
FTTD,medium_airport,Moundou Airport,8.628503,16.074241,TD,Moundou,5906.0,0,0
FTTJ,large_airport,N'Djamena International Airport,12.1337,15.034,TD,N'Djamena,9186.0,0,1
FTTY,medium_airport,Faya-Largeau Airport,17.917101,19.111099,TD,Faya-Largeau,9186.0,0,0
FVBU,medium_airport,Joshua Mqabuko Nkomo International Airport,-20.021254,28.626296,ZW,Bulawayo,8491.0,0,0
FVCZ,medium_airport,Buffalo Range Airport,-21.008101,31.5786,ZW,Chiredzi,5785.0,0,0
FVFA,medium_airport,Victoria Falls International Airport,-18.09589958190918,25.839000701904297,ZW,Victoria Falls,13123.0,0,0
FVHA,large_airport,Robert Gabriel Mugabe International Airport,-17.931801,31.0928,ZW,Harare,15502.0,1,1
FVKB,medium_airport,Kariba International Airport,-16.5198,28.885,ZW,Kariba,5413.0,0,0
FVMT,medium_airport,Mutoko Airport,-17.4319,32.184502,ZW,Mutoko,3609.0,0,0
FVMV,medium_airport,Masvingo International Airport,-20.0553,30.8591,ZW,Masvingo,5663.0,0,0
FVTL,medium_airport,Gweru - Thornhill Air Base,-19.436718,29.861945,ZW,Gweru,8766.0,0,0
FVWN,medium_airport,Hwange National Park Airport,-18.6299,27.021,ZW,Gwayi River Farms,15091.0,0,0
FWCL,medium_airport,Chileka International Airport,-15.679100036621094,34.9739990234375,MW,Blantyre,7628.0,0,0
FWDW,medium_airport,Dwangwa Airport,-12.517527,34.131877,MW,Dwangwa,3980.0,0,0
FWKA,medium_airport,Karonga Airport,-9.953571,33.893264,MW,Karonga,4200.0,0,0
FWKI,medium_airport,Kamuzu International Airport,-13.7894,33.780998,MW,Lumbadzi,11614.0,0,0
FWUU,medium_airport,Mzuzu Airport,-11.4447,34.011799,MW,Mzuzu,4291.0,0,0
FXMM,medium_airport,Moshoeshoe I International Airport,-29.462299,27.5525,LS,Mazenod,10498.0,0,0
FYAR,medium_airport,Arandis Airport,-22.461875,14.979322,,Arandis,6300.0,0,0
FYGF,medium_airport,Grootfontein Airport,-19.6022,18.1227,,Grootfontein,11680.0,0,0
FYKM,medium_airport,Katima Mulilo Airport,-17.634258,24.176688,,Mpacha,7520.0,0,0
FYKT,medium_airport,Keetmanshoop Airport,-26.539801,18.111401,,Keetmanshoop,7598.0,0,0
FYLZ,medium_airport,Luderitz Airport,-26.687400817871094,15.242899894714355,,Luderitz,6004.0,0,0
FYML,medium_airport,Mariental Airport,-24.6054,17.9254,,Mariental,6562.0,0,0
FYOA,medium_airport,Ondangwa Airport,-17.878201,15.9526,,Ondangwa,9800.0,0,0
FYOG,medium_airport,Oranjemund Airport,-28.5847,16.446699,,Oranjemund,5252.0,0,0
FYRU,medium_airport,Rundu Airport,-17.956499099731,19.719400405884,,Rundu,11004.0,0,0
FYTM,medium_airport,Tsumeb Airport,-19.26189994812,17.732500076294,,Tsumeb,4823.0,0,0
FYWB,medium_airport,Walvis Bay Airport,-22.979332,14.647102,,Rooikop,7001.0,0,0
FYWE,medium_airport,Eros Airport,-22.612199783325195,17.080400466918945,,Windhoek,7381.0,0,0
FYWH,large_airport,Hosea Kutako International Airport,-22.4799,17.4709,,Windhoek,15010.0,1,1
FZAA,large_airport,Ndjili International Airport,-4.38575,15.4446,CD,Kinshasa,13123.0,1,1
FZAB,medium_airport,Ndolo Airport,-4.32666015625,15.327500343323,CD,N'dolo,5526.0,0,0
FZBO,medium_airport,Bandundu Airport,-3.31132,17.381701,CD,Bandundu,4528.0,0,0
FZCA,medium_airport,Kikwit Airport,-5.03577,18.785601,CD,Kikwit,5151.0,0,0
FZEA,medium_airport,Mbandaka Airport,0.0226000007242,18.2887001038,CD,Mbandaka,7223.0,0,0
FZFD,medium_airport,Gbadolite Airport,4.252745,20.975271,CD,Gbadolite,10499.0,0,0
FZFK,medium_airport,Gemena Airport,3.23537,19.771299,CD,Gemena,6550.0,0,0
FZGA,medium_airport,Lisala Airport,2.17066,21.496901,CD,Lisala,7200.0,0,0
FZIC,medium_airport,Bangoka International Airport,0.481638997793,25.3379993439,CD,Kisangani,11483.0,0,0
FZJH,medium_airport,Matari Airport,2.82761,27.588301,CD,Isiro,8202.0,0,0
FZKA,medium_airport,Bunia Airport,1.565743,30.220685,CD,Bunia,6070.0,0,0
FZKJ,medium_airport,Buta Zega Airport,2.818058,24.793997,CD,Buta,6890.0,0,0
FZMA,medium_airport,Bukavu Kavumu Airport,-2.30898,28.8088,CD,Kamakombe,6562.0,0,0
FZNA,medium_airport,Goma International Airport,-1.66617,29.237929,CD,Goma,9695.0,0,0
FZOA,medium_airport,Kindu Airport,-2.91917991638,25.9153995514,CD,Kindu,7218.0,0,0
FZQA,medium_airport,Lubumbashi International Airport,-11.5913000107,27.5308990479,CD,Lubumbashi,10623.0,0,0
FZQM,medium_airport,Kolwezi Airport,-10.7659,25.505699,CD,Kolwezi,5741.0,0,0
FZRF,medium_airport,Kalemie Airport,-5.87556,29.25,CD,Kalemie,5741.0,0,0
FZSA,medium_airport,Kamina Air Base,-8.64202,25.252899,CD,Lumwe,8858.0,0,0
FZUA,medium_airport,Kananga Airport,-5.90005,22.4692,CD,Kananga,7218.0,0,0
FZWA,medium_airport,Mbuji Mayi Airport,-6.121240139010001,23.5690002441,CD,Mbuji Mayi,6558.0,0,0
GABS,large_airport,Modibo Keita International Airport,12.5335,-7.94994,ML,Bamako,10498.0,1,1
GAGO,medium_airport,Gao Airport,16.2484,-0.005456,ML,,8202.0,0,0
GAKY,medium_airport,Kayes Dag Dag Airport,14.482473,-11.39971,ML,,5267.0,0,0
GAMB,medium_airport,Mopti Ambodédjo International Airport,14.5128,-4.07956,ML,Sévaré,8340.0,0,0
GATB,medium_airport,Timbuktu Airport,16.730499,-3.00758,ML,Timbuktu,6923.0,0,0
GBYD,large_airport,Banjul International Airport,13.338,-16.652201,GM,Yundum,11811.0,1,1
GCFV,large_airport,Fuerteventura Airport,28.4527,-13.8638,ES,El Matorral,11598.0,1,1
GCHI,medium_airport,El Hierro Airport,27.8148,-17.8871,ES,El Hierro Island,4101.0,0,0
GCLA,medium_airport,La Palma Airport,28.626499,-17.7556,ES,"Sta Cruz de la Palma, La Palma Island",7218.0,0,0
GCLP,large_airport,Gran Canaria Airport,27.9319,-15.3866,ES,Gran Canaria Island,10171.0,1,1
GCRR,large_airport,César Manrique-Lanzarote Airport,28.945499,-13.6052,ES,San Bartolomé,7874.0,0,1
GCTS,large_airport,Tenerife Sur Airport,28.0445,-16.5725,ES,Tenerife,10499.0,1,1
GCXO,medium_airport,Tenerife Norte-Ciudad de La Laguna Airport,28.4827,-16.341499,ES,Tenerife,10404.0,0,0
GEML,medium_airport,Melilla Airport,35.2798,-2.95626,ES,Melilla,4701.0,0,0
GFBO,medium_airport,Bo Airport,7.9444,-11.761,SL,Bo,4003.0,0,0
GFKE,medium_airport,Kenema Airport,7.896364,-11.174126,SL,Kenema,3770.0,0,0
GFLL,large_airport,Lungi International Airport,8.61644,-13.1955,SL,Freetown (Lungi-Town),10498.0,1,1
GFYE,medium_airport,Yengema Airport,8.61047,-11.0454,SL,Yengema,3000.0,0,0
GGOV,medium_airport,Osvaldo Vieira International Airport,11.894800186157228,-15.65369987487793,GW,Bissau,10499.0,0,0
GLMR,medium_airport,Spriggs Payne Airport,6.28906,-10.7587,LR,Monrovia,6000.0,0,0
GLRB,large_airport,Roberts International Airport,6.23379,-10.3623,LR,Monrovia,11000.0,1,1
GMAD,large_airport,Al Massira Airport,30.322478,-9.412003,MA,Agadir (Temsia),10499.0,1,1
GMAT,medium_airport,Tan Tan Airport,28.44820022583008,-11.161299705505373,MA,Tan Tan,6562.0,0,0
GMFB,medium_airport,Bouarfa Airport,32.514306,-1.983056,MA,Bouarfa,10499.0,0,0
GMFF,large_airport,Fes Saïss International Airport,33.927299,-4.97796,MA,Saïss,10499.0,1,1
GMFK,medium_airport,Moulay Ali Cherif Airport,31.9475002289,-4.39833021164,MA,Errachidia,10499.0,0,0
GMFM,medium_airport,Bassatine Airport,33.879101,-5.51512,MA,Meknes,9252.0,0,0
GMFO,medium_airport,Oujda Angads Airport,34.789558,-1.926041,MA,Ahl Angad,9843.0,0,0
GMMA,medium_airport,Smara Airport,26.731987,-11.683655,EH,Smara,9850.0,0,0
GMME,large_airport,Rabat-Salé Airport,34.051498,-6.75152,MA,Rabat,11483.0,1,1
GMMH,medium_airport,Dakhla Airport,23.7183,-15.932,EH,Dakhla,9842.0,0,0
GMMI,medium_airport,Essaouira-Mogador Airport,31.397499,-9.68167,MA,Essaouira,8553.0,0,0
GMML,medium_airport,Hassan I Airport,27.142467,-13.224947,EH,El Aaiún,8861.0,0,0
GMMN,large_airport,Mohammed V International Airport,33.3675,-7.58997,MA,Casablanca,12205.0,1,1
GMMW,medium_airport,Nador Al Aaroui International Airport,34.9888,-3.02821,MA,Al Aaroui,9842.0,0,0
GMMX,large_airport,Menara Airport,31.606899,-8.0363,MA,Marrakech,10170.0,1,1
GMMY,medium_airport,Kenitra Air Base,34.298901,-6.59588,MA,Kenitra,7995.0,0,0
GMMZ,medium_airport,Ouarzazate Airport,30.9391002655,-6.909430027010001,MA,Ouarzazate,9842.0,0,0
GMTA,medium_airport,Cherif Al Idrissi Airport,35.177101,-3.83952,MA,Al Hoceima,10511.0,0,0
GMTN,medium_airport,Sania Ramel Airport,35.594299,-5.32002,MA,Tétouan,10784.0,0,0
GMTT,large_airport,Tangier Ibn Battuta Airport,35.731741,-5.921459,MA,Tangier,11483.0,1,1
GOBD,large_airport,Blaise Diagne International Airport,14.670878,-17.072829,SN,Dakar,11483.0,1,1
GOGG,medium_airport,Ziguinchor Airport,12.5556,-16.281799,SN,Ziguinchor,5069.0,0,0
GOGS,medium_airport,Cap Skirring Airport,12.39533,-16.748,SN,Cap Skirring,6573.0,0,0
GOOK,medium_airport,Kaolack Airport,14.146900177001951,-16.051300048828125,SN,Kaolack,5249.0,0,0
GOOY,medium_airport,Léopold Sédar Senghor International Airport,14.7397,-17.4902,SN,Dakar,11450.0,0,0
GOSM,medium_airport,Ouro Sogui Airport,15.5936,-13.3228,SN,Ouro Sogui,6299.0,0,0
GOSS,medium_airport,Saint Louis Airport,16.049814,-16.461039,SN,Saint Louis,6230.0,0,0
GOTB,medium_airport,Bakel Airport,14.847299575805664,-12.468299865722656,SN,Bakel,5741.0,0,0
GOTK,medium_airport,Kédougou Airport,12.57229995727539,-12.22029972076416,SN,Kédougou,5906.0,0,0
GOTT,medium_airport,Tambacounda Airport,13.7368,-13.6531,SN,Tambacounda,6562.0,0,0
GQNO,large_airport,Nouakchott–Oumtounsy International Airport,18.31,-15.969722,MR,Nouakchott,11155.0,1,1
GQPA,medium_airport,Atar International Airport,20.506799697875977,-13.04319953918457,MR,Atar,9855.0,0,0
GQPP,medium_airport,Nouadhibou International Airport,20.9330997467041,-17.030000686645508,MR,Nouadhibou,7961.0,0,0
GUCY,medium_airport,Conakry International Airport,9.57689,-13.612,GN,Conakry,10826.0,0,0
GVAC,large_airport,Amílcar Cabral International Airport,16.7414,-22.9494,CV,Espargos,9843.0,0,1
GVBA,medium_airport,Rabil Airport,16.136499404907227,-22.888900756835938,CV,Rabil,6890.0,0,0
GVMA,medium_airport,Maio Airport,15.15590000152588,-23.213699340820312,CV,Vila do Maio,3937.0,0,0
GVNP,large_airport,Nelson Mandela International Airport,14.941126,-23.484728,CV,Praia,6890.0,0,1
GVSN,medium_airport,Preguiça Airport,16.588852,-24.284132,CV,Preguiça,4593.0,0,0
GVSV,medium_airport,São Pedro Airport,16.8332,-25.0553,CV,São Pedro,6561.0,0,0
HAAB,large_airport,Addis Ababa Bole International Airport,8.97789,38.799301,ET,Addis Ababa,12467.0,1,1
HAAM,medium_airport,Arba Minch Airport,6.03939,37.5905,ET,Arba Minch,9170.0,0,0
HAAX,medium_airport,Axum Airport,14.1468,38.7728,ET,Axum,7874.0,0,0
HABD,medium_airport,Bahir Dar Airport,11.6081,37.321602,ET,Bahir Dar,9842.0,0,0
HADR,medium_airport,Aba Tenna Dejazmach Yilma International Airport,9.624699592590332,41.85419845581055,ET,Dire Dawa,8791.0,0,0
HAGM,medium_airport,Gambela Airport,8.12876,34.563099,ET,Gambela,8248.0,0,0
HAGN,medium_airport,Gondar Airport,12.5199,37.433998,ET,Azezo,9072.0,0,0
HAGO,medium_airport,Gode Airport,5.93513011932,43.5786018372,ET,Gode,7505.0,0,0
HAHM,medium_airport,Harar Meda Airport,8.7163,39.0059,ET,Debre Zeyit,5940.0,0,0
HAJJ,medium_airport,Wilwal International Airport,9.3325,42.9121,ET,Jijiga,8202.0,0,0
HAJM,medium_airport,Jimma Airport,7.66609001159668,36.81660079956055,ET,Jimma,6562.0,0,0
HAKD,medium_airport,Kebri Dahar Airport,6.732577,44.241339,ET,Kebri Dahar,8202.0,0,0
HALA,medium_airport,Hawassa International Airport,7.099869,38.396187,ET,Hawassa,9843.0,0,0
HAMK,medium_airport,Alula Aba Nega Airport,13.4674,39.533501,ET,Mekele,11825.0,0,0
HASO,medium_airport,Asosa Airport,10.018500328063965,34.586299896240234,ET,Asosa,8218.0,0,0
HBBA,medium_airport,Bujumbura Melchior Ndadaye International Airport,-3.32402,29.318501,BI,Bujumbura,11811.0,0,0
HCMH,medium_airport,Egal International Airport,9.513207,44.082389,SO,Hargeisa,12139.0,0,0
HCMI,medium_airport,Berbera Airport,10.385035,44.936723,SO,Berbera,13582.0,0,0
HCMK,medium_airport,Kismayo Airport,-0.377353,42.459202,SO,Kismayo,12139.0,0,0
HCMM,medium_airport,Aden Adde International Airport,2.014440059661865,45.3046989440918,SO,Mogadishu,10446.0,0,0
HDAM,large_airport,Djibouti-Ambouli Airport,11.5473,43.1595,DJ,Djibouti City,10335.0,1,1
